[{"venue_name": "'Grow for Life' Abbeville Street Community Garden", "venue_address": "'Grow for Life' Abbeville Street Community Garden, 41 Abbeville Street, Upper Mt Gravatt", "venue_type": "Community Garden,Non-Council venue", "latitude": -27.54443, "longitude": 153.088797, "suburb": "Upper Mt Gravatt", "suburb_list": "U, Upper Mt Gravatt", "geolocation": {"lon": 153.088797, "lat": -27.54443}},{"venue_name": "7th Brigade Park, Chermside", "venue_address": "7th Brigade Park, 21 Kittyhawk Drive, Chermside", "venue_type": "Park", "latitude": -27.3794, "longitude": 153.0303, "suburb": "Chermside", "suburb_list": "C, Chermside", "geolocation": {"lon": 153.0303, "lat": -27.3794}},{"venue_name": "A.J. Jones Recreation Reserve", "venue_address": "A.J. Jones Recreation Reserve, 247 Cornwall Street,  Greenslopes", "venue_type": "Park", "latitude": -27.502603, "longitude": 153.043796, "suburb": "Greenslopes", "suburb_list": "G, Greenslopes", "geolocation": {"lon": 153.043796, "lat": -27.502603}},{"venue_name": "A.R.C. Hill Park, Virginia", "venue_address": "A.R.C. Hill Park, 93 Goss Road, Virginia", "venue_type": "Park", "latitude": -27.3844, "longitude": 153.0558, "suburb": "Virginia", "suburb_list": "V, Virginia", "geolocation": {"lon": 153.0558, "lat": -27.3844}},{"venue_name": "Abbeville Street Park, Upper Mount Gravatt", "venue_address": "Abbeville Street Park, 41 Abbeville Street, Upper Mount Gravatt", "venue_type": "Community Garden,Park", "latitude": -27.5451, "longitude": 153.09, "suburb": "Upper Mt Gravatt", "suburb_list": "U, Upper Mt Gravatt", "geolocation": {"lon": 153.09, "lat": -27.5451}},{"venue_name": "Abbott Street Park, Camp Hill", "venue_address": "Abbott Street Park, 50 Abbott Street, Camp Hill", "venue_type": "Park", "latitude": -27.4998, "longitude": 153.0859, "suburb": "Camp Hill", "suburb_list": "C, Camp Hill", "geolocation": {"lon": 153.0859, "lat": -27.4998}},{"venue_name": "Acacia Park, St Lucia", "venue_address": "Acacia Park, 279 Carmody Road, St Lucia", "venue_type": "Park", "latitude": -27.4992, "longitude": 153.008, "suburb": "St Lucia", "suburb_list": "S, St Lucia", "geolocation": {"lon": 153.008, "lat": -27.4992}},{"venue_name": "Acacia Ridge Community Garden", "venue_address": "Belong Community Garden, 21 Hanify Street, Acacia Ridge", "venue_type": "Community Garden,Non-Council venue", "latitude": -27.5797, "longitude": 153.019, "suburb": "Acacia Ridge", "suburb_list": "A, Acacia Ridge", "geolocation": {"lon": 153.019, "lat": -27.5797}},{"venue_name": "Acacia Ridge Hall, Acacia Ridge", "venue_address": "Acacia Ridge Hall, 13 Coley Street, Acacia Ridge", "venue_type": "Community Hall", "latitude": -27.5874, "longitude": 153.0258, "suburb": "Acacia Ridge", "suburb_list": "A, Acacia Ridge", "geolocation": {"lon": 153.0258, "lat": -27.5874}},{"venue_name": "Acacia Ridge Leisure Centre, Acacia Ridge", "venue_address": "Acacia Ridge Leisure Centre, 1391 Beaudesert Road, Acacia Ridge", "venue_type": "Swimming pool", "latitude": -27.5863, "longitude": 153.0263, "suburb": "Acacia Ridge", "suburb_list": "A, Acacia Ridge", "geolocation": {"lon": 153.0263, "lat": -27.5863}},{"venue_name": "Acacia Ridge Treasure Trove, Acacia Ridge", "venue_address": "Acacia Ridge Treasure Trove, 46 Colebard Street West, Acacia Ridge", "venue_type": "General Council venue", "latitude": -27.5777, "longitude": 153.0007, "suburb": "Acacia Ridge", "suburb_list": "A, Acacia Ridge", "geolocation": {"lon": 153.0007, "lat": -27.5777}},{"venue_name": "Acorn Circuit Park, Forest Lake", "venue_address": "Acorn Circuit Park, 54 Acorn Circuit, Forest Lake", "venue_type": "Park", "latitude": -27.6086, "longitude": 152.9665, "suburb": "Forest Lake", "suburb_list": "F, Forest Lake", "geolocation": {"lon": 152.9665, "lat": -27.6086}},{"venue_name": "Adam Smiddy Park", "venue_address": "Adam Smiddy Park, 25 Park Road, Milton", "venue_type": "Park", "latitude": -27.470603, "longitude": 153.004388, "suburb": "Milton", "suburb_list": "M, Milton", "geolocation": {"lon": 153.004388, "lat": -27.470603}},{"venue_name": "Admiralty Towers II Park, Brisbane City", "venue_address": "Admiralty Towers II Park, 501 Queen Street, Brisbane City", "venue_type": "Park", "latitude": -27.4641, "longitude": 153.0315, "suburb": "Brisbane City", "suburb_list": "B, Brisbane City", "geolocation": {"lon": 153.0315, "lat": -27.4641}},{"venue_name": "Advanx Street Park, Kenmore Hills", "venue_address": "Advanx Street Park, 48 Advanx Street, Kenmore Hills", "venue_type": "Park", "latitude": -27.5012, "longitude": 152.9357, "suburb": "Kenmore Hills", "suburb_list": "K, Kenmore Hills", "geolocation": {"lon": 152.9357, "lat": -27.5012}},{"venue_name": "Akuna Street Park, Kenmore", "venue_address": "Akuna Street Park, 114 Akuna Street, Kenmore", "venue_type": "Park", "latitude": -27.5131, "longitude": 152.9503, "suburb": "Kenmore", "suburb_list": "K, Kenmore", "geolocation": {"lon": 152.9503, "lat": -27.5131}},{"venue_name": "Alan Willing Place Park, The Gap", "venue_address": "Alan Willing Place Park, 10 Bernarra Street, The Gap", "venue_type": "Park", "latitude": -27.4482, "longitude": 152.9595, "suburb": "The Gap", "suburb_list": "T, The Gap", "geolocation": {"lon": 152.9595, "lat": -27.4482}},{"venue_name": "Albany Creek Road Reserve, Bridgeman Downs", "venue_address": "Albany Creek Road Reserve, 534 Albany Creek Road, Bridgeman Downs", "venue_type": "Park", "latitude": -27.352, "longitude": 152.9848, "suburb": "Bridgeman Downs", "suburb_list": "B, Bridgeman Downs", "geolocation": {"lon": 152.9848, "lat": -27.352}},{"venue_name": "Albany Creek Roadside Park, Bridgeman Downs", "venue_address": "Albany Creek Roadside Park, Albany Creek Road, Bridgeman Downs", "venue_type": "Park", "latitude": -27.34999, "longitude": 152.9780313, "suburb": "Bridgeman Downs", "suburb_list": "B, Bridgeman Downs", "geolocation": {"lon": 152.9780313, "lat": -27.34999}},{"venue_name": "Albert Bishop Criterium track, Nundah", "venue_address": "Albert Bishop Criterium track, Hedley Avenue and Walkers Way, Nundah", "venue_type": "Non-Council venue", "latitude": -27.4090359, "longitude": 153.0682777, "suburb": "Nundah", "suburb_list": "N, Nundah", "geolocation": {"lon": 153.0682777, "lat": -27.4090359}},{"venue_name": "Albert Bishop Park, Nundah", "venue_address": "Albert Bishop Park, 40 Hendley Avenue, Nundah", "venue_type": "Park", "latitude": -27.405, "longitude": 153.0683, "suburb": "Nundah", "suburb_list": "N, Nundah", "geolocation": {"lon": 153.0683, "lat": -27.405}},{"venue_name": "Albion Overpass Park, Albion", "venue_address": "Albion Overpass Park, 66 Albion Road, Albion", "venue_type": "Park", "latitude": -27.4297, "longitude": 153.0385, "suburb": "Albion", "suburb_list": "A, Albion", "geolocation": {"lon": 153.0385, "lat": -27.4297}},{"venue_name": "Albion Post Office Park, Albion", "venue_address": "Albion Post Office Park, 389 Sandgate Road, Albion", "venue_type": "Park", "latitude": -27.4291, "longitude": 153.0431, "suburb": "Albion", "suburb_list": "A, Albion", "geolocation": {"lon": 153.0431, "lat": -27.4291}},{"venue_name": "Alcheringa Place Park, Robertson", "venue_address": "Alcheringa Place Park, 39A Barrett Street, Robertson", "venue_type": "Park", "latitude": -27.561, "longitude": 153.0539, "suburb": "Robertson", "suburb_list": "R, Robertson", "geolocation": {"lon": 153.0539, "lat": -27.561}},{"venue_name": "Alderley Grove Park, Alderley", "venue_address": "Alderley Grove Park, 57 Chelford Street, Alderley", "venue_type": "Park", "latitude": -27.4199, "longitude": 153.0077, "suburb": "Alderley", "suburb_list": "A, Alderley", "geolocation": {"lon": 153.0077, "lat": -27.4199}},{"venue_name": "Aldren Street Park, Stafford Heights", "venue_address": "Aldren Street Park, 1 Maryland Street, Stafford Heights", "venue_type": "Park", "latitude": -27.3958, "longitude": 153.012, "suburb": "Stafford Heights", "suburb_list": "S, Stafford Heights", "geolocation": {"lon": 153.012, "lat": -27.3958}},{"venue_name": "Alexander Macpherson Park, Nudgee", "venue_address": "Alexander Macpherson Park, 10B Student Street, Nudgee", "venue_type": "Park", "latitude": -27.3721, "longitude": 153.0882, "suburb": "Nudgee", "suburb_list": "N, Nudgee", "geolocation": {"lon": 153.0882, "lat": -27.3721}},{"venue_name": "Alexander Park, Moorooka", "venue_address": "Alexander Park, 334 Beaudesert Road, Moorooka", "venue_type": "Park", "latitude": -27.5389, "longitude": 153.0236, "suburb": "Moorooka", "suburb_list": "M, Moorooka", "geolocation": {"lon": 153.0236, "lat": -27.5389}},{"venue_name": "Alexander Smith Place, South Brisbane", "venue_address": "Alexander Smith Place, 63 Grey Street, South Brisbane", "venue_type": "Park", "latitude": -27.472, "longitude": 153.0169, "suburb": "South Brisbane", "suburb_list": "S, South Brisbane", "geolocation": {"lon": 153.0169, "lat": -27.472}},{"venue_name": "Alfred & Lucina Best Park, The Gap", "venue_address": "Alfred & Lucina Best Park, 89 Payne Road, The Gap", "venue_type": "Park", "latitude": -27.4490697, "longitude": 152.9512835, "suburb": "The Gap", "suburb_list": "T, The Gap", "geolocation": {"lon": 152.9512835, "lat": -27.4490697}},{"venue_name": "Algester Road Park, Calamvale", "venue_address": "Algester Road Park, 35 Hailey Place, Calamvale", "venue_type": "Park", "latitude": -27.6365, "longitude": 153.0292, "suburb": "Calamvale", "suburb_list": "C, Calamvale", "geolocation": {"lon": 153.0292, "lat": -27.6365}},{"venue_name": "Algoori Street Park, Morningside", "venue_address": "Algoori Street Park, 121 Algoori Street, Morningside", "venue_type": "Park", "latitude": -27.4627, "longitude": 153.0785, "suburb": "Morningside", "suburb_list": "M, Morningside", "geolocation": {"lon": 153.0785, "lat": -27.4627}},{"venue_name": "Allamanda Street Park, The Gap", "venue_address": "Allamanda Street Park, 41 Allamanda Street, The Gap", "venue_type": "Park", "latitude": -27.4501, "longitude": 152.9362, "suburb": "The Gap", "suburb_list": "T, The Gap", "geolocation": {"lon": 152.9362, "lat": -27.4501}},{"venue_name": "Allara Place Park, Eight Mile Plains", "venue_address": "Allara Place Park, 2643 Logan Road, Eight Mile Plains", "venue_type": "Park", "latitude": -27.5832, "longitude": 153.0967, "suburb": "Eight Mile Plains", "suburb_list": "E, Eight Mile Plains", "geolocation": {"lon": 153.0967, "lat": -27.5832}},{"venue_name": "Allawah Street Park, Yeerongpilly", "venue_address": "Allawah Street Park, 18 Allawah Street, Yeerongpilly", "venue_type": "Park", "latitude": -27.5308, "longitude": 153.0105, "suburb": "Yeerongpilly", "suburb_list": "Y, Yeerongpilly", "geolocation": {"lon": 153.0105, "lat": -27.5308}},{"venue_name": "Amarina Avenue Park, Ashgrove", "venue_address": "Amarina Avenue Park, 87 Amarina Avenue, Ashgrove", "venue_type": "Park", "latitude": -27.4444, "longitude": 152.9864, "suburb": "Ashgrove", "suburb_list": "A, Ashgrove", "geolocation": {"lon": 152.9864, "lat": -27.4444}},{"venue_name": "Amazons Place Park, Sinnamon Park", "venue_address": "Amazons Place Park, 60 Thomas Macleod Avenue, Sinnamon Park", "venue_type": "Park", "latitude": -27.5306, "longitude": 152.9523, "suburb": "Sinnamon Park", "suburb_list": "S, Sinnamon Park", "geolocation": {"lon": 152.9523, "lat": -27.5306}},{"venue_name": "Amberjack Street Park, Manly West", "venue_address": "Amberjack Street Park, 49 Amberjack Street, Manly West", "venue_type": "Park", "latitude": -27.4724, "longitude": 153.1645, "suburb": "Manly West", "suburb_list": "M, Manly West", "geolocation": {"lon": 153.1645, "lat": -27.4724}},{"venue_name": "Amelia Park, Gordon Park", "venue_address": "Amelia Park, 54A Swan Street, Gordon Park", "venue_type": "Park", "latitude": -27.4154, "longitude": 153.034, "suburb": "Gordon Park", "suburb_list": "G, Gordon Park", "geolocation": {"lon": 153.034, "lat": -27.4154}},{"venue_name": "Amott Street Park, Stafford Heights", "venue_address": "Amott Street Park, 20 Ringrose Street, Stafford Heights", "venue_type": "Park", "latitude": -27.3989, "longitude": 153.0165, "suburb": "Stafford Heights", "suburb_list": "S, Stafford Heights", "geolocation": {"lon": 153.0165, "lat": -27.3989}},{"venue_name": "Anna Smith OBE Quota Park, Carindale", "venue_address": "Anna Smith OBE Quota Park, 1159 Old Cleveland Road, Carindale", "venue_type": "Park", "latitude": -27.5035, "longitude": 153.1061, "suburb": "Carindale", "suburb_list": "C, Carindale", "geolocation": {"lon": 153.1061, "lat": -27.5035}},{"venue_name": "Annerley Hall, Annerley", "venue_address": "Annerley Hall, 13 Waldheim Street, Annerley", "venue_type": "Community Hall", "latitude": -27.5097, "longitude": 153.034, "suburb": "Annerley", "suburb_list": "A, Annerley", "geolocation": {"lon": 153.034, "lat": -27.5097}},{"venue_name": "Annerley Library", "venue_address": "Annerley Library, 448 Ipswich Road, Annerley", "venue_type": "Library", "latitude": -27.5096, "longitude": 153.0331, "suburb": "Annerley", "suburb_list": "A, Annerley", "geolocation": {"lon": 153.0331, "lat": -27.5096}},{"venue_name": "Anstead Bushland Reserve, Anstead", "venue_address": "Anstead Bushland Reserve, 552 Hawkesbury Road, Anstead", "venue_type": "Park", "latitude": -27.5463, "longitude": 152.857, "suburb": "Anstead", "suburb_list": "A, Anstead", "geolocation": {"lon": 152.857, "lat": -27.5463}},{"venue_name": "Antrim Street Park, Acacia Ridge", "venue_address": "Antrim Street Park, 21 Antrim Street, Acacia Ridge", "venue_type": "Park", "latitude": -27.5939, "longitude": 153.0219, "suburb": "Acacia Ridge", "suburb_list": "A, Acacia Ridge", "geolocation": {"lon": 153.0219, "lat": -27.5939}},{"venue_name": "Anzac Park, Toowong", "venue_address": "Anzac Park, 100 Dean Street, Toowong", "venue_type": "Park", "latitude": -27.4796, "longitude": 152.98, "suburb": "Toowong", "suburb_list": "T, Toowong", "geolocation": {"lon": 152.98, "lat": -27.4796}},{"venue_name": "Anzac Road Park, Carina Heights", "venue_address": "Anzac Road Park, 49 Anzac Road, Carina Heights", "venue_type": "Park", "latitude": -27.4985, "longitude": 153.0917, "suburb": "Carina Heights", "suburb_list": "C, Carina Heights", "geolocation": {"lon": 153.0917, "lat": -27.4985}},{"venue_name": "Anzac Square, Brisbane City", "venue_address": "Anzac Square, 228 Adelaide Street, Brisbane City", "venue_type": "Park", "latitude": -27.4665, "longitude": 153.0266, "suburb": "Brisbane City", "suburb_list": "B, Brisbane City", "geolocation": {"lon": 153.0266, "lat": -27.4665}},{"venue_name": "Appia Avenue Park, Seven Hills", "venue_address": "Appia Avenue Park, 44A Appia Avenue, Seven Hills", "venue_type": "Park", "latitude": -27.4795, "longitude": 153.07, "suburb": "Seven Hills", "suburb_list": "S, Seven Hills", "geolocation": {"lon": 153.07, "lat": -27.4795}},{"venue_name": "Arbor Street Park, Ferny Grove", "venue_address": "Arbor Street Park, 1200 Samford Road, Ferny Grove", "venue_type": "Park", "latitude": -27.4049, "longitude": 152.9378, "suburb": "Ferny Grove", "suburb_list": "F, Ferny Grove", "geolocation": {"lon": 152.9378, "lat": -27.4049}},{"venue_name": "Archer Parade Park, Corinda", "venue_address": "Archer Parade Park, 430 Cliveden Avenue, Corinda", "venue_type": "Park", "latitude": -27.5466, "longitude": 152.9933, "suburb": "Corinda", "suburb_list": "C, Corinda", "geolocation": {"lon": 152.9933, "lat": -27.5466}},{"venue_name": "Archer Street Park, Gordon Park", "venue_address": "Archer Street Park, 26 Archer Street, Gordon Park", "venue_type": "Park", "latitude": -27.4217, "longitude": 153.0249, "suburb": "Gordon Park", "suburb_list": "G, Gordon Park", "geolocation": {"lon": 153.0249, "lat": -27.4217}},{"venue_name": "Archerfield Wetlands Community Hub, Durack", "venue_address": "Archerfield Wetlands District Park, 455 Bowhill Road, Durack", "venue_type": "Community Hall,General Council venue", "latitude": -27.5861158, "longitude": 152.9884188, "suburb": "Durack", "suburb_list": "D, Durack", "geolocation": {"lon": 152.9884188, "lat": -27.5861158}},{"venue_name": "Arenga Street Park, Wakerley", "venue_address": "Arenga Street Park, 2 Arenga Street, Wakerley", "venue_type": "Park", "latitude": -27.4762, "longitude": 153.1523, "suburb": "Wakerley", "suburb_list": "W, Wakerley", "geolocation": {"lon": 153.1523, "lat": -27.4762}},{"venue_name": "Argyle Place Park, Forest Lake", "venue_address": "Argyle Place Park, 12 Lakeside Crescent, Forest Lake", "venue_type": "Park", "latitude": -27.6237, "longitude": 152.9579, "suburb": "Forest Lake", "suburb_list": "F, Forest Lake", "geolocation": {"lon": 152.9579, "lat": -27.6237}},{"venue_name": "Arnwood Street Park, Annerley", "venue_address": "Arnwood Street Park, 21 Arnwood Place, Annerley", "venue_type": "Park", "latitude": -27.5133, "longitude": 153.0402, "suburb": "Annerley", "suburb_list": "A, Annerley", "geolocation": {"lon": 153.0402, "lat": -27.5133}},{"venue_name": "Arrabri Avenue Park, Mt Ommaney", "venue_address": "Arrabri Avenue Park, 5 Westlake Drive, Mt Ommaney", "venue_type": "Park", "latitude": -27.5472, "longitude": 152.9317, "suburb": "Mt Ommaney", "suburb_list": "M, Mt Ommaney", "geolocation": {"lon": 152.9317, "lat": -27.5472}},{"venue_name": "Arthur Alfred Pointer Park, The Gap", "venue_address": "Arthur Alfred Pointer Park, 30 Dillon Road, The Gap", "venue_type": "Park", "latitude": -27.4534, "longitude": 152.9335, "suburb": "The Gap", "suburb_list": "T, The Gap", "geolocation": {"lon": 152.9335, "lat": -27.4534}},{"venue_name": "Arthur Davis Park, Sandgate", "venue_address": "Arthur Davis Park, Flinders Parade, Sandgate", "venue_type": "Park", "latitude": -27.3121, "longitude": 153.0683, "suburb": "Sandgate", "suburb_list": "S, Sandgate", "geolocation": {"lon": 153.0683, "lat": -27.3121}},{"venue_name": "Arthur Postle Park, Acacia Ridge", "venue_address": "Arthur Postle Park, 72 Oswin Street, Acacia Ridge", "venue_type": "Park", "latitude": -27.584625, "longitude": 153.028283, "suburb": "Acacia Ridge", "suburb_list": "A, Acacia Ridge", "geolocation": {"lon": 153.028283, "lat": -27.584625}},{"venue_name": "Ascot Park, Ascot", "venue_address": "Ascot Park, 93 Kitchener Road, Ascot", "venue_type": "Park", "latitude": -27.4298, "longitude": 153.063, "suburb": "Ascot", "suburb_list": "A, Ascot", "geolocation": {"lon": 153.063, "lat": -27.4298}},{"venue_name": "Ashgrove Avenue Park, Ashgrove", "venue_address": "Ashgrove Avenue Park, 214 Ashgrove Avenue, Ashgrove", "venue_type": "Park", "latitude": -27.4361, "longitude": 153.0037, "suburb": "Ashgrove", "suburb_list": "A, Ashgrove", "geolocation": {"lon": 153.0037, "lat": -27.4361}},{"venue_name": "Ashgrove Library", "venue_address": "Ashgrove Library, 87 Amarina Avenue, Ashgrove", "venue_type": "Library", "latitude": -27.443946, "longitude": 152.987098, "suburb": "Ashgrove", "suburb_list": "A, Ashgrove", "geolocation": {"lon": 152.987098, "lat": -27.443946}},{"venue_name": "Ashgrove Memorial Park, Ashgrove", "venue_address": "Ashgrove Memorial Park, 19 Kadanga Street, Ashgrove", "venue_type": "Park", "latitude": -27.4448, "longitude": 152.9908, "suburb": "Ashgrove", "suburb_list": "A, Ashgrove", "geolocation": {"lon": 152.9908, "lat": -27.4448}},{"venue_name": "Ashgrove Quarry Park, Ashgrove", "venue_address": "Ashgrove Quarry Park, 142 St Johns Avenue, Ashgrove", "venue_type": "Park", "latitude": -27.4442, "longitude": 152.9648, "suburb": "Ashgrove", "suburb_list": "A, Ashgrove", "geolocation": {"lon": 152.9648, "lat": -27.4442}},{"venue_name": "Ashgrove Scenic Reserve, Ashgrove", "venue_address": "Ashgrove Scenic Reserve, 121 St Johns Avenue, Ashgrove", "venue_type": "Park", "latitude": -27.4421, "longitude": 152.9651, "suburb": "Ashgrove", "suburb_list": "A, Ashgrove", "geolocation": {"lon": 152.9651, "lat": -27.4421}},{"venue_name": "Ashgrove Sportsground Park, Ashgrove", "venue_address": "Ashgrove Sportsground Park, 258 Acacia Drive, Ashgrove", "venue_type": "Park", "latitude": -27.4419, "longitude": 152.9735, "suburb": "Ashgrove", "suburb_list": "A, Ashgrove", "geolocation": {"lon": 152.9735, "lat": -27.4419}},{"venue_name": "Ashridge Road Park, Darra", "venue_address": "Ashridge Road Park, 148 Monier Road, Darra", "venue_type": "Park", "latitude": -27.5613636, "longitude": 152.956675, "suburb": "Darra", "suburb_list": "D, Darra", "geolocation": {"lon": 152.956675, "lat": -27.5613636}},{"venue_name": "Aspley mobile library", "venue_address": "Aspley mobile library, Corner Gayford and Albany Creek Roads, Aspley", "venue_type": "Mobile library", "latitude": -27.3636, "longitude": 153.0157, "suburb": "Aspley", "suburb_list": "A, Aspley", "geolocation": {"lon": 153.0157, "lat": -27.3636}},{"venue_name": "Aspley Rest Park, Carseldine", "venue_address": "Aspley Rest Park, 8 Graham Road, Carseldine", "venue_type": "Park", "latitude": -27.3581, "longitude": 153.0149, "suburb": "Carseldine", "suburb_list": "C, Carseldine", "geolocation": {"lon": 153.0149, "lat": -27.3581}},{"venue_name": "Aspley Special School Garden", "venue_address": "Aspley Special School Garden, 751 Zillmere Road, Zillmere", "venue_type": "Community Garden,Non-Council venue", "latitude": -27.3569, "longitude": 153.0219, "suburb": "Zillmere", "suburb_list": "Z, Zillmere", "geolocation": {"lon": 153.0219, "lat": -27.3569}},{"venue_name": "Assembly Street Park (no. 75), Salisbury", "venue_address": "Assembly Street Park (no. 75), 63 Fairlie Terrace, Salisbury", "venue_type": "Park", "latitude": -27.5477, "longitude": 153.0242, "suburb": "Salisbury", "suburb_list": "S, Salisbury", "geolocation": {"lon": 153.0242, "lat": -27.5477}},{"venue_name": "Assembly Street Park, Salisbury", "venue_address": "Assembly Street Park, 59 Assembly Street, Salisbury", "venue_type": "Park", "latitude": -27.5486, "longitude": 153.0256, "suburb": "Salisbury", "suburb_list": "S, Salisbury", "geolocation": {"lon": 153.0256, "lat": -27.5486}},{"venue_name": "Austin Uhlmann Park, Morningside", "venue_address": "Austin Uhlmann Park, 193 Richmond Road, Morningside", "venue_type": "Park", "latitude": -27.4729, "longitude": 153.0806, "suburb": "Morningside", "suburb_list": "M, Morningside", "geolocation": {"lon": 153.0806, "lat": -27.4729}},{"venue_name": "Avondale Park, Sinnamon Park", "venue_address": "Avondale Park, 32 Blyde Street, Sinnamon Park", "venue_type": "Park", "latitude": -27.5434, "longitude": 152.9449, "suburb": "Sinnamon Park", "suburb_list": "S, Sinnamon Park", "geolocation": {"lon": 152.9449, "lat": -27.5434}},{"venue_name": "Bacton Road Park, Chandler", "venue_address": "Bacton Road Park, 727 Tilley Road, Chandler", "venue_type": "Park", "latitude": -27.5182, "longitude": 153.1538, "suburb": "Chandler", "suburb_list": "C, Chandler", "geolocation": {"lon": 153.1538, "lat": -27.5182}},{"venue_name": "Badrick Place Park, The Gap", "venue_address": "Badrick Place Park, 21 Inwood Place, The Gap", "venue_type": "Park", "latitude": -27.4321, "longitude": 152.939, "suburb": "The Gap", "suburb_list": "T, The Gap", "geolocation": {"lon": 152.939, "lat": -27.4321}},{"venue_name": "Bakery Lane, Fortitude Valley", "venue_address": "Bakery Lane, 690 Ann Street, Fortitude Valley", "venue_type": "General Council venue", "latitude": -27.458021, "longitude": 153.03534, "suburb": "Fortitude Valley", "suburb_list": "F, Fortitude Valley", "geolocation": {"lon": 153.03534, "lat": -27.458021}},{"venue_name": "Balaangala Community Group Garden Space", "venue_address": "Balaangala Community Group Garden Space, 98 Yoorala Street, The Gap", "venue_type": "Community Garden,Non-Council venue", "latitude": -27.4494, "longitude": 152.9387, "suburb": "The Gap", "suburb_list": "T, The Gap", "geolocation": {"lon": 152.9387, "lat": -27.4494}},{"venue_name": "Bald Hills Cemetery, Bracken Ridge", "venue_address": "Bald Hills Cemetery, 225 Barrett Street, Bracken Ridge", "venue_type": "General Council venue", "latitude": -27.3181, "longitude": 153.0334, "suburb": "Bracken Ridge", "suburb_list": "B, Bracken Ridge", "geolocation": {"lon": 153.0334, "lat": -27.3181}},{"venue_name": "Balis Street Park, Holland Park West", "venue_address": "Balis Street Park, 72 Marshall Road, Holland Park West", "venue_type": "Park", "latitude": -27.5241, "longitude": 153.0617, "suburb": "Holland Park West", "suburb_list": "H, Holland Park West", "geolocation": {"lon": 153.0617, "lat": -27.5241}},{"venue_name": "Ballinderry Street Park, Everton Park", "venue_address": "Ballinderry Street Park, 17 Ballinderry Street, Everton Park", "venue_type": "Park", "latitude": -27.3976, "longitude": 152.9829, "suburb": "Everton Park", "suburb_list": "E, Everton Park", "geolocation": {"lon": 152.9829, "lat": -27.3976}},{"venue_name": "Balmoral Cemetery, Morningside", "venue_address": "Balmoral Cemetery, 441 Wynnum Road, Morningside", "venue_type": "General Council venue", "latitude": -27.4695, "longitude": 153.0659, "suburb": "Morningside", "suburb_list": "M, Morningside", "geolocation": {"lon": 153.0659, "lat": -27.4695}},{"venue_name": "Balmoral Park, Morningside", "venue_address": "Balmoral Park, 481 Wynnum Road, Morningside", "venue_type": "Park", "latitude": -27.4721, "longitude": 153.0666, "suburb": "Morningside", "suburb_list": "M, Morningside", "geolocation": {"lon": 153.0666, "lat": -27.4721}},{"venue_name": "Bancroft Park, Kelvin Grove", "venue_address": "Bancroft Park, 360 Kelvin Grove Road, Kelvin Grove", "venue_type": "Park", "latitude": -27.4438, "longitude": 153.006, "suburb": "Kelvin Grove", "suburb_list": "K, Kelvin Grove", "geolocation": {"lon": 153.006, "lat": -27.4438}},{"venue_name": "Bangalow Street Park (no. 192), Bridgeman Downs", "venue_address": "Bangalow Street Park, 192 Bangalow Street, Bridgeman Downs", "venue_type": "Park", "latitude": -27.441, "longitude": 152.9454, "suburb": "Bridgeman Downs", "suburb_list": "B, Bridgeman Downs", "geolocation": {"lon": 152.9454, "lat": -27.441}},{"venue_name": "Banks Crescent Park, Wynnum West", "venue_address": "Banks Crescent Park, 30 Balnave Street, Wynnum West", "venue_type": "Park", "latitude": -27.4513, "longitude": 153.1498, "suburb": "Wynnum West", "suburb_list": "W, Wynnum West", "geolocation": {"lon": 153.1498, "lat": -27.4513}},{"venue_name": "Banks Street Reserve, Alderley", "venue_address": "Banks Street Reserve, 26 View Street, Alderley", "venue_type": "Park", "latitude": -27.4342, "longitude": 152.9974, "suburb": "Alderley", "suburb_list": "A, Alderley", "geolocation": {"lon": 152.9974, "lat": -27.4342}},{"venue_name": "Banksia Avenue Park, Ashgrove", "venue_address": "Banksia Avenue Park, 56 Banksia Avenue, Ashgrove", "venue_type": "Park", "latitude": -27.4432, "longitude": 152.9776, "suburb": "Ashgrove", "suburb_list": "A, Ashgrove", "geolocation": {"lon": 152.9776, "lat": -27.4432}},{"venue_name": "Banksia Village Park, Forest Lake", "venue_address": "Banksia Village Park, 17A Banksia Circuit, Forest Lake", "venue_type": "Park", "latitude": -27.6116, "longitude": 152.9658, "suburb": "Forest Lake", "suburb_list": "F, Forest Lake", "geolocation": {"lon": 152.9658, "lat": -27.6116}},{"venue_name": "Bannister Park, Hendra", "venue_address": "Bannister Park, 116 Gerler Road, Hendra", "venue_type": "Park", "latitude": -27.4173, "longitude": 153.0701, "suburb": "Hendra", "suburb_list": "H, Hendra", "geolocation": {"lon": 153.0701, "lat": -27.4173}},{"venue_name": "Banyo Community Garden", "venue_address": "Banyo Community Garden, 37 Hilltop Place, Banyo", "venue_type": "Community Garden,Non-Council venue", "latitude": -27.3757, "longitude": 153.083, "suburb": "Banyo", "suburb_list": "B, Banyo", "geolocation": {"lon": 153.083, "lat": -27.3757}},{"venue_name": "Banyo Library", "venue_address": "Banyo Library, 284 St Vincents Road, Banyo", "venue_type": "Library", "latitude": -27.3743, "longitude": 153.0786, "suburb": "Banyo", "suburb_list": "B, Banyo", "geolocation": {"lon": 153.0786, "lat": -27.3743}},{"venue_name": "Banyo Memorial Park, Banyo", "venue_address": "Banyo Memorial Park, 300 St Vincents Rd, Banyo", "venue_type": "Park", "latitude": -27.3739, "longitude": 153.0784, "suburb": "Banyo", "suburb_list": "B, Banyo", "geolocation": {"lon": 153.0784, "lat": -27.3739}},{"venue_name": "Bapaume Road Park (road reserve), Holland Park West", "venue_address": "Bapaume Road Park, 238 Bapaume Road, Holland Park West", "venue_type": "Park", "latitude": -27.5356, "longitude": 153.0632, "suburb": "Holland Park West", "suburb_list": "H, Holland Park West", "geolocation": {"lon": 153.0632, "lat": -27.5356}},{"venue_name": "Barbara Bryce Park, Coorparoo", "venue_address": "Barbara Bryce Park, 45 Procyon Street, Coorparoo", "venue_type": "Park", "latitude": -27.5057, "longitude": 153.0695, "suburb": "Coorparoo", "suburb_list": "C, Coorparoo", "geolocation": {"lon": 153.0695, "lat": -27.5057}},{"venue_name": "Barbour Road Park, Bracken Ridge", "venue_address": "Barbour Road Park, 222 Barbour Road, Bracken Ridge", "venue_type": "Park", "latitude": -27.3232, "longitude": 153.0192, "suburb": "Bracken Ridge", "suburb_list": "B, Bracken Ridge", "geolocation": {"lon": 153.0192, "lat": -27.3232}},{"venue_name": "Barcoorah Street Park, Westlake", "venue_address": "Barcoorah Street Park, 88 Barcoorah Street, Westlake", "venue_type": "Park", "latitude": -27.5484, "longitude": 152.9047, "suburb": "Westlake", "suburb_list": "W, Westlake", "geolocation": {"lon": 152.9047, "lat": -27.5484}},{"venue_name": "Bardon Park, Bardon", "venue_address": "Bardon Park, 69 Bowman Parade, Bardon", "venue_type": "Park", "latitude": -27.4566, "longitude": 152.9787, "suburb": "Bardon", "suburb_list": "B, Bardon", "geolocation": {"lon": 152.9787, "lat": -27.4566}},{"venue_name": "Barlow Place Park, Boondall", "venue_address": "Barlow Place Park, 19 Sean Street, Boondall", "venue_type": "Park", "latitude": -27.3422, "longitude": 153.0568, "suburb": "Boondall", "suburb_list": "B, Boondall", "geolocation": {"lon": 153.0568, "lat": -27.3422}},{"venue_name": "Barnard Street Park, Carindale", "venue_address": "Barnard Street Park, 60 Bridgnorth Street, Carindale", "venue_type": "Park", "latitude": -27.5059, "longitude": 153.1111, "suburb": "Carindale", "suburb_list": "C, Carindale", "geolocation": {"lon": 153.1111, "lat": -27.5059}},{"venue_name": "Baroona Road Park (road reserve)", "venue_address": "Baroona Road Park, 243 Baroona Road, Paddington", "venue_type": "Park", "latitude": -27.4652, "longitude": 152.9926, "suburb": "Paddington", "suburb_list": "P, Paddington", "geolocation": {"lon": 152.9926, "lat": -27.4652}},{"venue_name": "Barramundi Street Park, Manly West", "venue_address": "Barramundi Street Park, 30 Barramundi Street, Manly West", "venue_type": "Park", "latitude": -27.4718, "longitude": 153.1673, "suburb": "Manly West", "suburb_list": "M, Manly West", "geolocation": {"lon": 153.1673, "lat": -27.4718}},{"venue_name": "Barrett Street Reserve (water reserve), Bracken Ridge", "venue_address": "Barrett Street Reserve (water reserve), 110 Norris Road, Bracken Ridge", "venue_type": "Park", "latitude": -27.3215, "longitude": 153.0341, "suburb": "Bracken Ridge", "suburb_list": "B, Bracken Ridge", "geolocation": {"lon": 153.0341, "lat": -27.3215}},{"venue_name": "Barrington Crescent Park, Wakerley", "venue_address": "Barrington Crescent Park, 11 Barrington Crescent, Wakerley", "venue_type": "Park", "latitude": -27.4866, "longitude": 153.1562, "suburb": "Wakerley", "suburb_list": "W, Wakerley", "geolocation": {"lon": 153.1562, "lat": -27.4866}},{"venue_name": "Barston Place Park, Coorparoo", "venue_address": "Barston Place Park, 23 Norfolk Street, Coorparoo", "venue_type": "Park", "latitude": -27.5018, "longitude": 153.0636, "suburb": "Coorparoo", "suburb_list": "C, Coorparoo", "geolocation": {"lon": 153.0636, "lat": -27.5018}},{"venue_name": "Bartleys Hill Outlook Reserve, Ascot", "venue_address": "Bartleys Hill Outlook Reserve, 6 Massey Street, Ascot", "venue_type": "Park", "latitude": -27.4319, "longitude": 153.0518, "suburb": "Ascot", "suburb_list": "A, Ascot", "geolocation": {"lon": 153.0518, "lat": -27.4319}},{"venue_name": "Barton Road Pocket Park, Hawthorne", "venue_address": "Barton Road Pocket Park, 186 Barton Road, Hawthorne", "venue_type": "Park", "latitude": -27.4582, "longitude": 153.0535, "suburb": "Hawthorne", "suburb_list": "H, Hawthorne", "geolocation": {"lon": 153.0535, "lat": -27.4582}},{"venue_name": "Barungwarra Bushland Reserve, Bald Hills", "venue_address": "Barungwarra Bushland Reserve, 98 Bald Hills-Burpengary Road, Bald Hills", "venue_type": "Park", "latitude": -27.3038, "longitude": 153.0144, "suburb": "Bald Hills", "suburb_list": "B, Bald Hills", "geolocation": {"lon": 153.0144, "lat": -27.3038}},{"venue_name": "Barwin Street Park, Wakerley", "venue_address": "Barwin Street Park, 10 Barwin Street, Wakerley", "venue_type": "Park", "latitude": -27.4825, "longitude": 153.1561, "suburb": "Wakerley", "suburb_list": "W, Wakerley", "geolocation": {"lon": 153.1561, "lat": -27.4825}},{"venue_name": "Barwon Street Park, Morningside", "venue_address": "Barwon Street Park, 175 Beverley Street, Morningside", "venue_type": "Park", "latitude": -27.4579, "longitude": 153.0809, "suburb": "Morningside", "suburb_list": "M, Morningside", "geolocation": {"lon": 153.0809, "lat": -27.4579}},{"venue_name": "Bayside Park, Manly", "venue_address": "Bayside Park, 450 Esplanade, Manly", "venue_type": "Park", "latitude": -27.4521, "longitude": 153.187, "suburb": "Manly", "suburb_list": "M, Manly", "geolocation": {"lon": 153.187, "lat": -27.4521}},{"venue_name": "Bayside Parklands", "venue_address": "Bayside Parklands, access is from Wynnum, Manly, Lota and Ransome including Wynnum Road, Manly Road and Chelsea Road", "venue_type": "Park", "latitude": -27.4281, "longitude": 153.1672, "suburb": "Manly", "suburb_list": "M, Manly", "geolocation": {"lon": 153.1672, "lat": -27.4281}},{"venue_name": "Beaudesert Road Park, Calamvale", "venue_address": "Beaudesert Road Park, 2533 Beaudesert Road, Calamvale", "venue_type": "Park", "latitude": -27.6277412, "longitude": 153.0458374, "suburb": "Calamvale", "suburb_list": "C, Calamvale", "geolocation": {"lon": 153.0458374, "lat": -27.6277412}},{"venue_name": "Beccaria Park, Doolandella", "venue_address": "Beccaria Park, 8 Beccaria Place, Doolandella", "venue_type": "Park", "latitude": -27.6075, "longitude": 152.9852, "suburb": "Doolandella", "suburb_list": "D, Doolandella", "geolocation": {"lon": 152.9852, "lat": -27.6075}},{"venue_name": "Beckett Road Park, McDowall", "venue_address": "Beckett Road Park, 60 Paramount Circuit, McDowall", "venue_type": "Park", "latitude": -27.3734, "longitude": 152.9918, "suburb": "McDowall", "suburb_list": "M, McDowall", "geolocation": {"lon": 152.9918, "lat": -27.3734}},{"venue_name": "Bedford Playground Park, Spring Hill", "venue_address": "Bedford Playground Park, 33 Quarry Street, Spring Hill", "venue_type": "Park", "latitude": -27.4573, "longitude": 153.0283, "suburb": "Spring Hill", "suburb_list": "S, Spring Hill", "geolocation": {"lon": 153.0283, "lat": -27.4573}},{"venue_name": "Bedgood Park, Milton", "venue_address": "Bedgood Park, 5 Issac Street, Milton", "venue_type": "Park", "latitude": -27.46244, "longitude": 153.005336, "suburb": "Milton", "suburb_list": "M, Milton", "geolocation": {"lon": 153.005336, "lat": -27.46244}},{"venue_name": "Bedser Street Park", "venue_address": "23 Bedser St, Macgregor QLD 4109", "venue_type": "Park", "latitude": -27.5598288, "longitude": 153.0738831, "suburb": "Macgregor", "suburb_list": "M, Macgregor", "geolocation": {"lon": 153.0738831, "lat": -27.5598288}},{"venue_name": "Beelarong Community Farm", "venue_address": "Beelarong Community Farm, Corner York and Beverley Streets, Morningside", "venue_type": "Community Garden", "latitude": -27.4602, "longitude": 153.0786, "suburb": "Morningside", "suburb_list": "M, Morningside", "geolocation": {"lon": 153.0786, "lat": -27.4602}},{"venue_name": "Behan Crescent Park, Wakerley", "venue_address": "Behan Crescent Park, 30 Behan Crescent, Wakerley", "venue_type": "Park", "latitude": -27.4813, "longitude": 153.1549, "suburb": "Wakerley", "suburb_list": "W, Wakerley", "geolocation": {"lon": 153.1549, "lat": -27.4813}},{"venue_name": "Beirne Lane, Fortitude Valley", "venue_address": "Beirne Lane, Brunswick Street Mall, Fortitude Valley", "venue_type": "General Council venue", "latitude": -27.458036, "longitude": 153.03417, "suburb": "Fortitude Valley", "suburb_list": "F, Fortitude Valley", "geolocation": {"lon": 153.03417, "lat": -27.458036}},{"venue_name": "Bekker Place Park, Kuraby", "venue_address": "Bekker Place Park, 10 Bekker Place, Kuraby", "venue_type": "Park", "latitude": -27.6085, "longitude": 153.0997, "suburb": "Kuraby", "suburb_list": "K, Kuraby", "geolocation": {"lon": 153.0997, "lat": -27.6085}},{"venue_name": "Beldale Park, Sunnybank Hills", "venue_address": "Beldale Park, 12 Dapper Street, Sunnybank Hills", "venue_type": "Park", "latitude": -27.5985, "longitude": 153.0619, "suburb": "Sunnybank Hills", "suburb_list": "S, Sunnybank Hills", "geolocation": {"lon": 153.0619, "lat": -27.5985}},{"venue_name": "Bellbowrie mobile library", "venue_address": "Bellbowrie mobile library, Bellbowrie Shopping Plaza carpark, off Birkin Road, Bellbowrie", "venue_type": "Mobile library", "latitude": -27.5623, "longitude": 152.8885, "suburb": "Bellbowrie", "suburb_list": "B, Bellbowrie", "geolocation": {"lon": 152.8885, "lat": -27.5623}},{"venue_name": "Bellbowrie Pool, Bellbowrie", "venue_address": "Bellbowrie Pool, 47 Birkin Road, Bellbowrie", "venue_type": "Swimming pool", "latitude": -27.5638, "longitude": 152.8897, "suburb": "Bellbowrie", "suburb_list": "B, Bellbowrie", "geolocation": {"lon": 152.8897, "lat": -27.5638}},{"venue_name": "Bellevue Avenue Park, Gaythorne", "venue_address": "Bellevue Avenue Park, 107A Lade Street, Gaythorne", "venue_type": "Park", "latitude": -27.41, "longitude": 152.983, "suburb": "Gaythorne", "suburb_list": "G, Gaythorne", "geolocation": {"lon": 152.983, "lat": -27.41}},{"venue_name": "Bellevue Terrace Park, St Lucia", "venue_address": "Bellevue Terrace Park, 43 Sir Fred Schonell Drive, St Lucia", "venue_type": "Park", "latitude": -27.4934, "longitude": 152.9957, "suburb": "St Lucia", "suburb_list": "S, St Lucia", "geolocation": {"lon": 152.9957, "lat": -27.4934}},{"venue_name": "Belloy Street Park, Wavell Heights", "venue_address": "Belloy Street Park, 24 Belloy Street, Wavell Heights", "venue_type": "Park", "latitude": -27.3973, "longitude": 153.0429, "suburb": "Wavell Heights", "suburb_list": "W, Wavell Heights", "geolocation": {"lon": 153.0429, "lat": -27.3973}},{"venue_name": "Belmont Hills Bushland, Carindale", "venue_address": "Belmont Hills Bushland, 470 Weekes Road, Carindale", "venue_type": "Park", "latitude": -27.5087, "longitude": 153.1208, "suburb": "Carindale", "suburb_list": "C, Carindale", "geolocation": {"lon": 153.1208, "lat": -27.5087}},{"venue_name": "Belmont Recreation Reserve, Carina", "venue_address": "Belmont Recreation Reserve, 1006 Old Cleveland Road, Carina", "venue_type": "Park", "latitude": -27.4954, "longitude": 153.0961, "suburb": "Carina", "suburb_list": "C, Carina", "geolocation": {"lon": 153.0961, "lat": -27.4954}},{"venue_name": "Ben Lomond Street Park, Aspley", "venue_address": "Ben Lomond Street Park, 21 Muneera Crescent, Aspley", "venue_type": "Park", "latitude": -27.3671, "longitude": 153.0076, "suburb": "Aspley", "suburb_list": "A, Aspley", "geolocation": {"lon": 153.0076, "lat": -27.3671}},{"venue_name": "Benarrawa Reserve, Corinda", "venue_address": "Benarrawa Reserve, 68 Gray Avenue, Corinda", "venue_type": "Park", "latitude": -27.5428, "longitude": 152.9864, "suburb": "Corinda", "suburb_list": "C, Corinda", "geolocation": {"lon": 152.9864, "lat": -27.5428}},{"venue_name": "Benbek Circuit Park, Sunnybank Hills", "venue_address": "Benbek Circuit Park, 15 Benbek Circuit, Sunnybank Hills", "venue_type": "Park", "latitude": -27.6015, "longitude": 153.0427, "suburb": "Sunnybank Hills", "suburb_list": "S, Sunnybank Hills", "geolocation": {"lon": 153.0427, "lat": -27.6015}},{"venue_name": "Bendell Park, Sunnybank Hills", "venue_address": "Bendell Park, 131 Borella Road, Sunnybank Hills", "venue_type": "Park", "latitude": -27.5922, "longitude": 153.0548, "suburb": "Sunnybank Hills", "suburb_list": "S, Sunnybank Hills", "geolocation": {"lon": 153.0548, "lat": -27.5922}},{"venue_name": "Benelong Park, Kedron", "venue_address": "Benelong Park, 80 Eleventh Avenue, Kedron", "venue_type": "Park", "latitude": -27.4052, "longitude": 153.0404, "suburb": "Kedron", "suburb_list": "K, Kedron", "geolocation": {"lon": 153.0404, "lat": -27.4052}},{"venue_name": "Benjamina Place Park, The Gap", "venue_address": "Benjamina Place Park, 20 Benjamina Place, The Gap", "venue_type": "Park", "latitude": -27.4531, "longitude": 152.9411, "suburb": "The Gap", "suburb_list": "T, The Gap", "geolocation": {"lon": 152.9411, "lat": -27.4531}},{"venue_name": "Bensara Place Park, Carseldine", "venue_address": "Bensara Place Park, 8 Salito Street, Carseldine", "venue_type": "Park", "latitude": -27.3572, "longitude": 153.0093, "suburb": "Carseldine", "suburb_list": "C, Carseldine", "geolocation": {"lon": 153.0093, "lat": -27.3572}},{"venue_name": "Berkshire Crescent Park, Wishart", "venue_address": "Berkshire Crescent Park, 17 Berkshire Crescent, Wishart", "venue_type": "Park", "latitude": -27.549, "longitude": 153.0994, "suburb": "Wishart", "suburb_list": "W, Wishart", "geolocation": {"lon": 153.0994, "lat": -27.549}},{"venue_name": "Bermingham Street Park, Alderley", "venue_address": "Bermingham Street Park, 25 Bermingham Street, Alderley", "venue_type": "Park", "latitude": -27.4221, "longitude": 152.9985, "suburb": "Alderley", "suburb_list": "A, Alderley", "geolocation": {"lon": 152.9985, "lat": -27.4221}},{"venue_name": "Bert Wolfe Park, Bald Hills", "venue_address": "Bert Wolfe Park, 11 Ulva Street, Bald Hills", "venue_type": "Park", "latitude": -27.3138, "longitude": 153.0089, "suburb": "Bald Hills", "suburb_list": "B, Bald Hills", "geolocation": {"lon": 153.0089, "lat": -27.3138}},{"venue_name": "Beryl McKenzie Park, Holland Park West", "venue_address": "Beryl McKenzie Park, 54 Nursery Road, Holland Park West", "venue_type": "Park", "latitude": -27.5337, "longitude": 153.0641, "suburb": "Holland Park West", "suburb_list": "H, Holland Park West", "geolocation": {"lon": 153.0641, "lat": -27.5337}},{"venue_name": "Beryl Roberts Park, Coopers Plains", "venue_address": "Beryl Roberts Park, 45A Baroda Street, Coopers Plains", "venue_type": "Park", "latitude": -27.5652, "longitude": 153.0409, "suburb": "Coopers Plains", "suburb_list": "C, Coopers Plains", "geolocation": {"lon": 153.0409, "lat": -27.5652}},{"venue_name": "Bethania Street Community Garden", "venue_address": "Bethania Street Community Garden, 38 Bethania Street, Lota", "venue_type": "Community Garden", "latitude": -27.469, "longitude": 153.1841, "suburb": "Lota", "suburb_list": "L, Lota", "geolocation": {"lon": 153.1841, "lat": -27.469}},{"venue_name": "Biami Yumba Park, Fig Tree Pocket", "venue_address": "Biami Yumba Park (Fig Tree Pocket Reserve), 838 Fig Tree Pocket Road, Fig Tree Pocket", "venue_type": "Park", "latitude": -27.5407, "longitude": 152.9708, "suburb": "Fig Tree Pocket", "suburb_list": "F, Fig Tree Pocket", "geolocation": {"lon": 152.9708, "lat": -27.5407}},{"venue_name": "Bill Benham Park, Hemmant", "venue_address": "Bill Benham Park, 15 Wallflower Street, Hemmant", "venue_type": "Park", "latitude": -27.4467, "longitude": 153.1211, "suburb": "Hemmant", "suburb_list": "H, Hemmant", "geolocation": {"lon": 153.1211, "lat": -27.4467}},{"venue_name": "Bill Brown Sports Reserve (includes Hidden World Playground), Fitzgibbon", "venue_address": "Bill Brown Sports Reserve, 411 Roghan Road, Fitzgibbon", "venue_type": "Park", "latitude": -27.3399, "longitude": 153.0339, "suburb": "Fitzgibbon", "suburb_list": "F, Fitzgibbon", "geolocation": {"lon": 153.0339, "lat": -27.3399}},{"venue_name": "Bill Brown Sports Reserve, Fitzgibbon", "venue_address": "391 Telegraph Road, Fitzgibbon", "venue_type": "Park", "latitude": -27.3331907, "longitude": 153.0303239, "suburb": "Fitzgibbon", "suburb_list": "F, Fitzgibbon", "geolocation": {"lon": 153.0303239, "lat": -27.3331907}},{"venue_name": "Bill Cash Memorial Park, Cannon Hill", "venue_address": "Bill Cash Memorial Park, 898 Wynnum Road, Cannon Hill", "venue_type": "Park", "latitude": -27.467, "longitude": 153.0864, "suburb": "Cannon Hill", "suburb_list": "C, Cannon Hill", "geolocation": {"lon": 153.0864, "lat": -27.467}},{"venue_name": "Bill Hewitt Reserve, Camp Hill", "venue_address": "Bill Hewitt Reserve, 147 Samuel Street, Camp Hill", "venue_type": "Park", "latitude": -27.5034796, "longitude": 153.0837343, "suburb": "Camp Hill", "suburb_list": "C, Camp Hill", "geolocation": {"lon": 153.0837343, "lat": -27.5034796}},{"venue_name": "Bill Key Lock Place Park, Inala", "venue_address": "Bill Key Lock Place Park, 8 Bluejay Street, Inala", "venue_type": "Park", "latitude": -27.6028, "longitude": 152.982, "suburb": "Inala", "suburb_list": "I, Inala", "geolocation": {"lon": 152.982, "lat": -27.6028}},{"venue_name": "Bill McFarlane Park, Wakerley", "venue_address": "Bill McFarlane Park, 880 Manly Road, Wakerley", "venue_type": "Park", "latitude": -27.4763, "longitude": 153.1453, "suburb": "Wakerley", "suburb_list": "W, Wakerley", "geolocation": {"lon": 153.1453, "lat": -27.4763}},{"venue_name": "Bill Moore Park, Salisbury", "venue_address": "Bill Moore Park, 10 Toorak Road, Salisbury", "venue_type": "Park", "latitude": -27.5485, "longitude": 153.0282, "suburb": "Salisbury", "suburb_list": "S, Salisbury", "geolocation": {"lon": 153.0282, "lat": -27.5485}},{"venue_name": "Billabong Place Park, Algester", "venue_address": "Billabong Place Park, 223 Nottingham Road, Algester", "venue_type": "Park", "latitude": -27.6312, "longitude": 153.0353, "suburb": "Algester", "suburb_list": "A, Algester", "geolocation": {"lon": 153.0353, "lat": -27.6312}},{"venue_name": "Bille Brown Theatre, South Brisbane", "venue_address": "Bille Brown Theatre, 78 Montague Road, South Brisbane", "venue_type": "Non-Council venue", "latitude": -27.4719474, "longitude": 153.0140858, "suburb": "South Brisbane", "suburb_list": "S, South Brisbane", "geolocation": {"lon": 153.0140858, "lat": -27.4719474}},{"venue_name": "Billy Mateer Reserve", "venue_address": "Billy Mateer Reserve, 57 Prospect Terrace, Kelvin Grove", "venue_type": "Park", "latitude": -27.451437, "longitude": 153.0100529, "suburb": "Kelvin Grove", "suburb_list": "K, Kelvin Grove", "geolocation": {"lon": 153.0100529, "lat": -27.451437}},{"venue_name": "Bilston Street Park, Stafford", "venue_address": "Bilston Street Park, 21 Bilston Street, Stafford", "venue_type": "Park", "latitude": -27.4141, "longitude": 153.0106, "suburb": "Stafford", "suburb_list": "S, Stafford", "geolocation": {"lon": 153.0106, "lat": -27.4141}},{"venue_name": "Bisset Place Park, McDowall", "venue_address": "Bisset Place Park, 26 Bisset Place, McDowall", "venue_type": "Park", "latitude": -27.3849, "longitude": 152.9914, "suburb": "McDowall", "suburb_list": "M, McDowall", "geolocation": {"lon": 152.9914, "lat": -27.3849}},{"venue_name": "Blackbutt Place Park, Brookfield", "venue_address": "Blackbutt Place Park, 23A Blackbutt Place, Brookfield", "venue_type": "Park", "latitude": -27.5061, "longitude": 152.9289, "suburb": "Brookfield", "suburb_list": "B, Brookfield", "geolocation": {"lon": 152.9289, "lat": -27.5061}},{"venue_name": "Bliss Street Park (Lot 29), Gaythorne", "venue_address": "Bliss Street Park (Lot 29), 7A Bliss Street, Gaythorne", "venue_type": "Park", "latitude": -27.4222, "longitude": 152.9762, "suburb": "Gaythorne", "suburb_list": "G, Gaythorne", "geolocation": {"lon": 152.9762, "lat": -27.4222}},{"venue_name": "Bliss Street Park (No.39), Gaythorne", "venue_address": "Bliss Street Park (No.39), 39 Bliss Street, Gaythorne", "venue_type": "Park", "latitude": -27.4225, "longitude": 152.9784, "suburb": "Gaythorne", "suburb_list": "G, Gaythorne", "geolocation": {"lon": 152.9784, "lat": -27.4225}},{"venue_name": "Blue Gum Park, Zillmere", "venue_address": "Blue Gum Park, 18A Spano Street, Zillmere", "venue_type": "Park", "latitude": -27.3526, "longitude": 153.0335, "suburb": "Zillmere", "suburb_list": "Z, Zillmere", "geolocation": {"lon": 153.0335, "lat": -27.3526}},{"venue_name": "Blue Range Drive Park, Algester", "venue_address": "Blue Range Drive Park, 27 Blue Range Drive, Algester", "venue_type": "Park", "latitude": -27.6026, "longitude": 153.0354, "suburb": "Algester", "suburb_list": "A, Algester", "geolocation": {"lon": 153.0354, "lat": -27.6026}},{"venue_name": "Bognor Street Park, Tingalpa", "venue_address": "Bognor Street Park, 90 Bognor Street, Tingalpa", "venue_type": "Park", "latitude": -27.4666, "longitude": 153.1463, "suburb": "Tingalpa", "suburb_list": "T, Tingalpa", "geolocation": {"lon": 153.1463, "lat": -27.4666}},{"venue_name": "Boles Street Park, Stafford", "venue_address": "Boles Street Park, 2 Boles Street, Stafford", "venue_type": "Park", "latitude": -27.4062, "longitude": 153.0025, "suburb": "Stafford", "suburb_list": "S, Stafford", "geolocation": {"lon": 153.0025, "lat": -27.4062}},{"venue_name": "Bolton Street Park, Eight Mile Plains", "venue_address": "Bolton Street Park, 42 Bolton Street, Eight Mile Plains", "venue_type": "Park", "latitude": -27.5785, "longitude": 153.0922, "suburb": "Eight Mile Plains", "suburb_list": "E, Eight Mile Plains", "geolocation": {"lon": 153.0922, "lat": -27.5785}},{"venue_name": "Bonemill Road Park, Runcorn", "venue_address": "Bonemill Road Park, 200 Daw Road, Runcorn", "venue_type": "Park", "latitude": -27.5887, "longitude": 153.0751, "suburb": "Runcorn", "suburb_list": "R, Runcorn", "geolocation": {"lon": 153.0751, "lat": -27.5887}},{"venue_name": "Booker Place Park, Bellbowrie", "venue_address": "Booker Place Park, 89 Birkin Road, Bellbowrie", "venue_type": "Park", "latitude": -27.5637, "longitude": 152.8926, "suburb": "Bellbowrie", "suburb_list": "B, Bellbowrie", "geolocation": {"lon": 152.8926, "lat": -27.5637}},{"venue_name": "Booloumba Crescent Park, Forest Lake", "venue_address": "Booloumba Crescent Park, 35 Booloumba Crescent, Forest Lake", "venue_type": "Park", "latitude": -27.6315, "longitude": 152.966, "suburb": "Forest Lake", "suburb_list": "F, Forest Lake", "geolocation": {"lon": 152.966, "lat": -27.6315}},{"venue_name": "Boondall Park, Boondall", "venue_address": "Boondall Park, 2332 Sandgate Road, Boondall", "venue_type": "Park", "latitude": -27.3389, "longitude": 153.0571, "suburb": "Boondall", "suburb_list": "B, Boondall", "geolocation": {"lon": 153.0571, "lat": -27.3389}},{"venue_name": "Boondall Wetlands", "venue_address": "Boondall Wetlands, 1512 Nudgee Road, Nudgee Beach", "venue_type": "Park", "latitude": -27.3365, "longitude": 153.0643, "suburb": "Nudgee Beach", "suburb_list": "N, Nudgee Beach", "geolocation": {"lon": 153.0643, "lat": -27.3365}},{"venue_name": "Boondall Wetlands Environment Centre", "venue_address": "Boondall Wetlands Environment Centre, 31 Paperbark Drive (entry via Stanworth Rd), Boondall", "venue_type": "Park", "latitude": -27.3367, "longitude": 153.0741, "suburb": "Boondall", "suburb_list": "B, Boondall", "geolocation": {"lon": 153.0741, "lat": -27.3367}},{"venue_name": "Boorabbin Picnic Ground, Wishart", "venue_address": "Boorabbin Picnic Ground, 677A Mt Gravatt-Capalaba Road, Wishart", "venue_type": "Park", "latitude": -27.5529, "longitude": 153.1108, "suburb": "Wishart", "suburb_list": "W, Wishart", "geolocation": {"lon": 153.1108, "lat": -27.5529}},{"venue_name": "Booral Street Park, Sunnybank Hills", "venue_address": "Booral Street Park, 14 Bonyi Street, Sunnybank Hills", "venue_type": "Park", "latitude": -27.5963, "longitude": 153.0624, "suburb": "Sunnybank Hills", "suburb_list": "S, Sunnybank Hills", "geolocation": {"lon": 153.0624, "lat": -27.5963}},{"venue_name": "Boorala Crescent Park, Eight Mile Plains", "venue_address": "Boorala Crescent Park, 8 Narmar Court, Eight Mile Plains", "venue_type": "Park", "latitude": -27.5683, "longitude": 153.0965, "suburb": "Eight Mile Plains", "suburb_list": "E, Eight Mile Plains", "geolocation": {"lon": 153.0965, "lat": -27.5683}},{"venue_name": "Borage Place Park, Calamvale", "venue_address": "Borage Place Park, 54 Shelduck Place, Calamvale", "venue_type": "Park", "latitude": -27.6288, "longitude": 153.0503, "suburb": "Calamvale", "suburb_list": "C, Calamvale", "geolocation": {"lon": 153.0503, "lat": -27.6288}},{"venue_name": "Bordeaux Street Park, Eight Mile Plains", "venue_address": "Bordeaux Street Park, 114 Bordeaux Street, Eight Mile Plains", "venue_type": "Park", "latitude": -27.5853, "longitude": 153.0899, "suburb": "Eight Mile Plains", "suburb_list": "E, Eight Mile Plains", "geolocation": {"lon": 153.0899, "lat": -27.5853}},{"venue_name": "Borella Road Park, Sunnybank Hills", "venue_address": "Borella Road Park, 23 Borella Road, Sunnybank Hills", "venue_type": "Park", "latitude": -27.5972, "longitude": 153.0541, "suburb": "Sunnybank Hills", "suburb_list": "S, Sunnybank Hills", "geolocation": {"lon": 153.0541, "lat": -27.5972}},{"venue_name": "Boronia Park, Forest Lake", "venue_address": "Boronia Park, 36 Evergreen Place, Forest Lake", "venue_type": "Park", "latitude": -27.6186, "longitude": 152.9589, "suburb": "Forest Lake", "suburb_list": "F, Forest Lake", "geolocation": {"lon": 152.9589, "lat": -27.6186}},{"venue_name": "Botanic Gardens Auditorium, Brisbane Botanic Gardens Mt Coot-tha", "venue_address": "Botanic Gardens Auditorium, Brisbane Botanic Gardens Mt Coot-tha, 152 Mt Coot-tha Road, Toowong", "venue_type": "General Council venue,Library", "latitude": -27.475283, "longitude": 152.9739393, "suburb": "Toowong", "suburb_list": "T, Toowong", "geolocation": {"lon": 152.9739393, "lat": -27.475283}},{"venue_name": "Boundary Street Park (no. 349), West End", "venue_address": "Boundary Street Park (no. 349), 349 Boundary Street, West End", "venue_type": "Park", "latitude": -27.4899, "longitude": 153.0101, "suburb": "West End", "suburb_list": "W, West End", "geolocation": {"lon": 153.0101, "lat": -27.4899}},{"venue_name": "Bowden Park, Geebung", "venue_address": "Bowden Park, 30 Dartnell Street, Geebung", "venue_type": "Park", "latitude": -27.3736, "longitude": 153.0503, "suburb": "Geebung", "suburb_list": "G, Geebung", "geolocation": {"lon": 153.0503, "lat": -27.3736}},{"venue_name": "Bowen Park, Bowen Hills", "venue_address": "Bowen Park, 3 Bowen Bridge Road , Bowen Hills", "venue_type": "Park", "latitude": -27.4488, "longitude": 153.0298, "suburb": "Bowen Hills", "suburb_list": "B, Bowen Hills", "geolocation": {"lon": 153.0298, "lat": -27.4488}},{"venue_name": "Bowhill Road Park, Willawong", "venue_address": "Bowhill Road Park, 300 Bowhill Road, Willawong", "venue_type": "Park", "latitude": -27.5867, "longitude": 152.9956, "suburb": "Willawong", "suburb_list": "W, Willawong", "geolocation": {"lon": 152.9956, "lat": -27.5867}},{"venue_name": "Bowie's Flat Park, Camp Hill", "venue_address": "Bowie's Flat Park, 66 Leicester Street, Camp Hill", "venue_type": "Park", "latitude": -27.4944, "longitude": 153.0653, "suburb": "Camp Hill", "suburb_list": "C, Camp Hill", "geolocation": {"lon": 153.0653, "lat": -27.4944}},{"venue_name": "Bowman Park, Bardon", "venue_address": "Bowman Park, 247 Simpsons Road, Bardon", "venue_type": "Park", "latitude": -27.4581, "longitude": 152.9771, "suburb": "Bardon", "suburb_list": "B, Bardon", "geolocation": {"lon": 152.9771, "lat": -27.4581}},{"venue_name": "Boyd Park, Nundah", "venue_address": "Boyd Park, 11 Boyd Road, Nundah", "venue_type": "Park", "latitude": -27.401, "longitude": 153.0571, "suburb": "Nundah", "suburb_list": "N, Nundah", "geolocation": {"lon": 153.0571, "lat": -27.401}},{"venue_name": "Boyd Terrace Park, Brookfield", "venue_address": "Boyd Terrace Park, 191 Rafting Ground Road, Brookfield", "venue_type": "Park", "latitude": -27.505, "longitude": 152.9185, "suburb": "Brookfield", "suburb_list": "B, Brookfield", "geolocation": {"lon": 152.9185, "lat": -27.505}},{"venue_name": "Bracken Ridge BMX facility, Fitzgibbon", "venue_address": "Bracken Ridge BMX facility, Corner of Telegraph Road and Lemke Road, Fitzgibbon", "venue_type": "General Council venue", "latitude": -27.3312753, "longitude": 153.0442237, "suburb": "Fitzgibbon", "suburb_list": "F, Fitzgibbon", "geolocation": {"lon": 153.0442237, "lat": -27.3312753}},{"venue_name": "Bracken Ridge Hall, Bracken Ridge", "venue_address": "Bracken Ridge Hall, 77 Bracken Street, Bracken Ridge", "venue_type": "Community Hall", "latitude": -27.3178, "longitude": 153.0384, "suburb": "Bracken Ridge", "suburb_list": "B, Bracken Ridge", "geolocation": {"lon": 153.0384, "lat": -27.3178}},{"venue_name": "Bracken Ridge Library", "venue_address": "Bracken Ridge Library, 77 Bracken Street, Bracken Ridge", "venue_type": "Library", "latitude": -27.318, "longitude": 153.0379, "suburb": "Bracken Ridge", "suburb_list": "B, Bracken Ridge", "geolocation": {"lon": 153.0379, "lat": -27.318}},{"venue_name": "Bracken Ridge Skate Plaza, Fitzgibbon", "venue_address": "Bracken Ridge Skate Plaza, 523 Telegraph Road, Fitzgibbon", "venue_type": "General Council venue", "latitude": -27.3325, "longitude": 153.0425, "suburb": "Fitzgibbon", "suburb_list": "F, Fitzgibbon", "geolocation": {"lon": 153.0425, "lat": -27.3325}},{"venue_name": "Bracken Ridge Uniting Church Hall", "venue_address": "Bracken Ridge Uniting Church Hall, Corner Pellinore Street and Bracken Road, Bracken Ridge", "venue_type": "Community Hall", "latitude": -27.3168, "longitude": 153.0379, "suburb": "Bracken Ridge", "suburb_list": "B, Bracken Ridge", "geolocation": {"lon": 153.0379, "lat": -27.3168}},{"venue_name": "Bradbury Park, Kedron", "venue_address": "Bradbury Park, 91 Kitchener Road, Kedron", "venue_type": "Park", "latitude": -27.3962, "longitude": 153.0279, "suburb": "Kedron", "suburb_list": "K, Kedron", "geolocation": {"lon": 153.0279, "lat": -27.3962}},{"venue_name": "Bradshaw Park, Lutwyche", "venue_address": "Bradshaw Park, 20 Lamington Avenue, Lutwyche", "venue_type": "Park", "latitude": -27.4195, "longitude": 153.0323, "suburb": "Lutwyche", "suburb_list": "L, Lutwyche", "geolocation": {"lon": 153.0323, "lat": -27.4195}},{"venue_name": "Brady Bushland Park, Runcorn", "venue_address": "Brady Bushland Park, 430 Gowan Road, Runcorn", "venue_type": "Park", "latitude": -27.608, "longitude": 153.0642, "suburb": "Runcorn", "suburb_list": "R, Runcorn", "geolocation": {"lon": 153.0642, "lat": -27.608}},{"venue_name": "Brampton Street Park, Eight Mile Plains", "venue_address": "Brampton Street Park, 72 Brampton Street, Eight Mile Plains", "venue_type": "Park", "latitude": -27.5722, "longitude": 153.0984, "suburb": "Eight Mile Plains", "suburb_list": "E, Eight Mile Plains", "geolocation": {"lon": 153.0984, "lat": -27.5722}},{"venue_name": "Breakwater Park, Wynnum", "venue_address": "Breakwater Park, Waterloo Esplanade, Wynnum", "venue_type": "Park", "latitude": -27.4363, "longitude": 153.174, "suburb": "Wynnum", "suburb_list": "W, Wynnum", "geolocation": {"lon": 153.174, "lat": -27.4363}},{"venue_name": "Breene Court Park, Carindale", "venue_address": "Breene Court Park, 15 Breene Court, Carindale", "venue_type": "Park", "latitude": -27.5109, "longitude": 153.1119, "suburb": "Carindale", "suburb_list": "C, Carindale", "geolocation": {"lon": 153.1119, "lat": -27.5109}},{"venue_name": "Breton Street Park, Sunnybank", "venue_address": "Breton Street Park, 90 Breton Street, Sunnybank", "venue_type": "Park", "latitude": -27.5776, "longitude": 153.0484, "suburb": "Sunnybank", "suburb_list": "S, Sunnybank", "geolocation": {"lon": 153.0484, "lat": -27.5776}},{"venue_name": "Bretts Wharf plaza", "venue_address": "Bretts Wharf plaza, Kingsford Smith Drive, Hamilton", "venue_type": "General Council venue", "latitude": -27.439231, "longitude": 153.062142, "suburb": "Hamilton", "suburb_list": "H, Hamilton", "geolocation": {"lon": 153.062142, "lat": -27.439231}},{"venue_name": "Brian Hallinan Bikeway", "venue_address": "Brian Hallinan Bikeway, Riaweena Street, The Gap", "venue_type": "Park", "latitude": -27.4458, "longitude": 152.9414, "suburb": "The Gap", "suburb_list": "T, The Gap", "geolocation": {"lon": 152.9414, "lat": -27.4458}},{"venue_name": "Bridge Street Park, Red Hill", "venue_address": "Bridge Street Park, 39 Bridge Street, Red Hill", "venue_type": "Park", "latitude": -27.4484, "longitude": 153.0006, "suburb": "Red Hill", "suburb_list": "R, Red Hill", "geolocation": {"lon": 153.0006, "lat": -27.4484}},{"venue_name": "Bridgeman Place Park, Forest Lake", "venue_address": "Bridgeman Place Park, 20 Bridgeman Place, Forest Lake", "venue_type": "Park", "latitude": -27.612, "longitude": 152.9768, "suburb": "Forest Lake", "suburb_list": "F, Forest Lake", "geolocation": {"lon": 152.9768, "lat": -27.612}},{"venue_name": "Bridgnorth Street Park (no. 71), Carindale", "venue_address": "Bridgnorth Street Park, 71 Bridgnorth Street, Carindale", "venue_type": "Park", "latitude": -27.5067, "longitude": 153.1112, "suburb": "Carindale", "suburb_list": "C, Carindale", "geolocation": {"lon": 153.1112, "lat": -27.5067}},{"venue_name": "Brighton mobile library", "venue_address": "Brighton mobile library, Decker Park car park, 25th Avenue, Brighton", "venue_type": "Mobile library", "latitude": -27.2867, "longitude": 153.0646, "suburb": "Brighton", "suburb_list": "B, Brighton", "geolocation": {"lon": 153.0646, "lat": -27.2867}},{"venue_name": "Brighton Park, Brighton", "venue_address": "Brighton Park, 596 Beaconsfield Terrace, Brighton", "venue_type": "Park", "latitude": -27.2826, "longitude": 153.0606, "suburb": "Brighton", "suburb_list": "B, Brighton", "geolocation": {"lon": 153.0606, "lat": -27.2826}},{"venue_name": "Brighton Wellness Hub, Brighton", "venue_address": "Brighton Wellness Hub, 449 Hornibrook Highway, Brighton", "venue_type": "Non-Council venue", "latitude": -27.2891016, "longitude": 153.0625148, "suburb": "Brighton", "suburb_list": "B, Brighton", "geolocation": {"lon": 153.0625148, "lat": -27.2891016}},{"venue_name": "Brisbane Botanic Gardens Mt Coot-tha", "venue_address": "Brisbane Botanic Gardens Mt Coot-tha, 152 Mt Coot-tha Road, Toowong", "venue_type": "Park", "latitude": -27.4759, "longitude": 152.9777, "suburb": "Toowong", "suburb_list": "T, Toowong", "geolocation": {"lon": 152.9777, "lat": -27.4759}},{"venue_name": "Brisbane Business Hub", "venue_address": "Level 2, Brisbane Business Hub, 155 Queen Street, Brisbane City", "venue_type": "Non-Council venue", "latitude": -27.4694959, "longitude": 153.0237679, "suburb": "Brisbane City", "suburb_list": "B, Brisbane City", "geolocation": {"lon": 153.0237679, "lat": -27.4694959}},{"venue_name": "Brisbane City Hall, Brisbane City", "venue_address": "Brisbane City Hall, 64 Adelaide Street, Brisbane City", "venue_type": "General Council venue", "latitude": -27.4691, "longitude": 153.0241, "suburb": "Brisbane City", "suburb_list": "B, Brisbane City", "geolocation": {"lon": 153.0241, "lat": -27.4691}},{"venue_name": "Brisbane Institute of Art, Windsor", "venue_address": "Brisbane Institute of Art, 41 Grafton Street, Windsor", "venue_type": "General Council venue", "latitude": -27.4326, "longitude": 153.0345, "suburb": "Windsor", "suburb_list": "W, Windsor", "geolocation": {"lon": 153.0345, "lat": -27.4326}},{"venue_name": "Brisbane Koala Bushlands", "venue_address": "Brisbane Koala Bushlands, Alperton Road, Burbank", "venue_type": "Park", "latitude": -27.5738, "longitude": 153.1613, "suburb": "Burbank", "suburb_list": "B, Burbank", "geolocation": {"lon": 153.1613, "lat": -27.5738}},{"venue_name": "Brisbane Metro Info Centre", "venue_address": "Brisbane Metro Info Centre, 63 Adelaide Street Brisbane", "venue_type": "General Council venue", "latitude": -27.4696239, "longitude": 153.0214384, "suburb": "Brisbane City", "suburb_list": "B, Brisbane City", "geolocation": {"lon": 153.0214384, "lat": -27.4696239}},{"venue_name": "Brisbane Powerhouse, New Farm", "venue_address": "Brisbane Powerhouse, 119 Lamington Street, New Farm", "venue_type": "General Council venue", "latitude": -27.4674, "longitude": 153.0528, "suburb": "New Farm", "suburb_list": "N, New Farm", "geolocation": {"lon": 153.0528, "lat": -27.4674}},{"venue_name": "Brisbane Square Library", "venue_address": "Brisbane Square Library, 266 George Street, Brisbane City", "venue_type": "Library", "latitude": -27.4711, "longitude": 153.0226, "suburb": "Brisbane City", "suburb_list": "B, Brisbane City", "geolocation": {"lon": 153.0226, "lat": -27.4711}},{"venue_name": "Bristol Park, Wavell Heights", "venue_address": "Bristol Park, 356 Rode Road, Wavell Heights", "venue_type": "Park", "latitude": -27.3949, "longitude": 153.0363, "suburb": "Wavell Heights", "suburb_list": "W, Wavell Heights", "geolocation": {"lon": 153.0363, "lat": -27.3949}},{"venue_name": "BrisWest Centre", "venue_address": "BrisWest Centre, 132 Latrobe Terrace, Paddington", "venue_type": "Non-Council venue", "latitude": -27.4586848, "longitude": 152.9961712, "suburb": "Paddington", "suburb_list": "P, Paddington", "geolocation": {"lon": 152.9961712, "lat": -27.4586848}},{"venue_name": "Brittain Park, Coopers Plains", "venue_address": "Brittain Park, 168 Troughton Road, Coopers Plains", "venue_type": "Park", "latitude": -27.5689, "longitude": 153.0471, "suburb": "Coopers Plains", "suburb_list": "C, Coopers Plains", "geolocation": {"lon": 153.0471, "lat": -27.5689}},{"venue_name": "Broadwater Picnic Ground Park, Mansfield", "venue_address": "Broadwater Picnic Ground Park, 20 Mansfield Place, Mansfield", "venue_type": "Park", "latitude": -27.5439, "longitude": 153.1122, "suburb": "Mansfield", "suburb_list": "M, Mansfield", "geolocation": {"lon": 153.1122, "lat": -27.5439}},{"venue_name": "Brook Street Park, Everton Park", "venue_address": "Brook Street Park, 20 Brook Street, Everton Park", "venue_type": "Park", "latitude": -27.4102, "longitude": 152.9874, "suburb": "Everton Park", "suburb_list": "E, Everton Park", "geolocation": {"lon": 152.9874, "lat": -27.4102}},{"venue_name": "Brookfield Cemetery, Brookfield", "venue_address": "Brookfield Cemetery, 665 Brookfield Road, Brookfield", "venue_type": "General Council venue", "latitude": -27.493, "longitude": 152.9112, "suburb": "Brookfield", "suburb_list": "B, Brookfield", "geolocation": {"lon": 152.9112, "lat": -27.493}},{"venue_name": "Brookfield Recreation Reserve, Brookfield", "venue_address": "Brookfield Recreation Reserve, 48 Boscombe Road, Brookfield", "venue_type": "Park", "latitude": -27.4926, "longitude": 152.9128, "suburb": "Brookfield", "suburb_list": "B, Brookfield", "geolocation": {"lon": 152.9128, "lat": -27.4926}},{"venue_name": "Brookfield Road Park, Kenmore Hills", "venue_address": "Brookfield Road Park, 18 Branton Street, Kenmore Hills", "venue_type": "Park", "latitude": -27.5067, "longitude": 152.9309, "suburb": "Kenmore Hills", "suburb_list": "K, Kenmore Hills", "geolocation": {"lon": 152.9309, "lat": -27.5067}},{"venue_name": "Broula Park, Stafford Heights", "venue_address": "Broula Park, 55 Dorrigo Street, Stafford Heights", "venue_type": "Park", "latitude": -27.404, "longitude": 153.0208, "suburb": "Stafford Heights", "suburb_list": "S, Stafford Heights", "geolocation": {"lon": 153.0208, "lat": -27.404}},{"venue_name": "Brownlee Street Park, Pinkenba", "venue_address": "Brownlee Street Park,129 Brownlee Street, Pinkenba, Australia", "venue_type": "Park", "latitude": -27.3963, "longitude": 153.136, "suburb": "Pinkenba", "suburb_list": "P, Pinkenba", "geolocation": {"lon": 153.136, "lat": -27.3963}},{"venue_name": "Bruce Reynold's studio", "venue_address": "Bruce Reynold's studio, 105 Norman Street, Woolloongabba", "venue_type": "Non-Council venue", "latitude": -27.4918, "longitude": 153.0447, "suburb": "Woolloongabba", "suburb_list": "W, Woolloongabba", "geolocation": {"lon": 153.0447, "lat": -27.4918}},{"venue_name": "Bruna Street Park, Runcorn", "venue_address": "Bruna Street Park, 18 Bruna Street, Runcorn", "venue_type": "Park", "latitude": -27.5985, "longitude": 153.0664, "suburb": "Runcorn", "suburb_list": "R, Runcorn", "geolocation": {"lon": 153.0664, "lat": -27.5985}},{"venue_name": "Brunswick Street Mall, Fortitude Valley", "venue_address": "Brunswick Street Mall, Brunswick Street, Fortitude Valley", "venue_type": "General Council venue", "latitude": -27.4567, "longitude": 153.0329, "suburb": "Fortitude Valley", "suburb_list": "F, Fortitude Valley", "geolocation": {"lon": 153.0329, "lat": -27.4567}},{"venue_name": "Brush Box Place Park, Heathwood", "venue_address": "Brush Box Place Park, 21 Brush Box Place, Heathwood", "venue_type": "Park", "latitude": -27.6322, "longitude": 152.9935, "suburb": "Heathwood", "suburb_list": "H, Heathwood", "geolocation": {"lon": 152.9935, "lat": -27.6322}},{"venue_name": "Brushbox Park, Upper Mount Gravatt", "venue_address": "Brushbox Park, 142 Lumley Street, Upper Mount Gravatt", "venue_type": "Park", "latitude": -27.5531, "longitude": 153.0882, "suburb": "Upper Mt Gravatt", "suburb_list": "U, Upper Mt Gravatt", "geolocation": {"lon": 153.0882, "lat": -27.5531}},{"venue_name": "Brydon Street Park, Highgate Hill", "venue_address": "Brydon Street Park, 19 Brydon Street, Highgate Hill", "venue_type": "Park", "latitude": -27.4888, "longitude": 153.016, "suburb": "Highgate Hill", "suburb_list": "H, Highgate Hill", "geolocation": {"lon": 153.016, "lat": -27.4888}},{"venue_name": "Buckingham Place Park, Eight Mile Plains", "venue_address": "Buckingham Place, Park, 81 Manchester Street, Eight Mile Plains", "venue_type": "Park", "latitude": -27.5752, "longitude": 153.0965, "suburb": "Eight Mile Plains", "suburb_list": "E, Eight Mile Plains", "geolocation": {"lon": 153.0965, "lat": -27.5752}},{"venue_name": "Buckley Street Park, Carina Heights", "venue_address": "Buckley Street Park, 1020 Creek Road, Carina Heights", "venue_type": "Park", "latitude": -27.5092, "longitude": 153.0943, "suburb": "Carina Heights", "suburb_list": "C, Carina Heights", "geolocation": {"lon": 153.0943, "lat": -27.5092}},{"venue_name": "Bulimba Community Centre", "venue_address": "Bulimba Community Centre, 1 Barramul Street, Bulimba", "venue_type": "Non-Council venue", "latitude": -27.4535005, "longitude": 153.0578246, "suburb": "Bulimba", "suburb_list": "B, Bulimba", "geolocation": {"lon": 153.0578246, "lat": -27.4535005}},{"venue_name": "Bulimba Creek Catchment Co-ordinating Committee", "venue_address": "Bulimba Creek Catchment Co-ordinating Committee, 1358-1368 Old Cleveland Road, Carindale", "venue_type": "Community Garden,Non-Council venue", "latitude": -27.5022, "longitude": 153.1216, "suburb": "Carindale", "suburb_list": "C, Carindale", "geolocation": {"lon": 153.1216, "lat": -27.5022}},{"venue_name": "Bulimba Library", "venue_address": "Bulimba Library, 219 Oxford Street, Bulimba", "venue_type": "Library", "latitude": -27.4519, "longitude": 153.0626, "suburb": "Bulimba", "suburb_list": "B, Bulimba", "geolocation": {"lon": 153.0626, "lat": -27.4519}},{"venue_name": "Bulimba Memorial Park, Bulimba", "venue_address": "Bulimba Memorial Park, 129 Oxford Street, Bulimba", "venue_type": "Park", "latitude": -27.4523, "longitude": 153.0572, "suburb": "Bulimba", "suburb_list": "B, Bulimba", "geolocation": {"lon": 153.0572, "lat": -27.4523}},{"venue_name": "Bulimba Riverside Park, Bulimba", "venue_address": "Bulimba Riverside Park, 57 Addison Avenue, Bulimba", "venue_type": "Park", "latitude": -27.4538, "longitude": 153.0538, "suburb": "Bulimba", "suburb_list": "B, Bulimba", "geolocation": {"lon": 153.0538, "lat": -27.4538}},{"venue_name": "Bulimba State School Garden", "venue_address": "Bulimba State School Garden, 261 Oxford Street, Bulimba", "venue_type": "Community Garden,Non-Council venue", "latitude": -27.4525, "longitude": 153.065, "suburb": "Bulimba", "suburb_list": "B, Bulimba", "geolocation": {"lon": 153.065, "lat": -27.4525}},{"venue_name": "Bundabah Drive Park, Calamvale", "venue_address": "Bundabah Drive Park, 31 Bundabah Drive, Calamvale", "venue_type": "Park", "latitude": -27.6168, "longitude": 153.0386, "suburb": "Calamvale", "suburb_list": "C, Calamvale", "geolocation": {"lon": 153.0386, "lat": -27.6168}},{"venue_name": "Bundara Park, Keperra", "venue_address": "Bundara Park, 5 Shaun Place, Keperra", "venue_type": "Park", "latitude": -27.4183, "longitude": 152.9392, "suburb": "Keperra", "suburb_list": "K, Keperra", "geolocation": {"lon": 152.9392, "lat": -27.4183}},{"venue_name": "Bunyapa Park, West End", "venue_address": "Bunyapa Park, 68 Vulture Street, West End", "venue_type": "Park", "latitude": -27.480656, "longitude": 153.011147, "suburb": "West End", "suburb_list": "W, West End", "geolocation": {"lon": 153.011147, "lat": -27.480656}},{"venue_name": "Buranda Playground Park, Woolloongabba", "venue_address": "Buranda Playground Park, 34 Sword Street, Woolloongabba", "venue_type": "Park", "latitude": -27.4939, "longitude": 153.0428, "suburb": "Woolloongabba", "suburb_list": "W, Woolloongabba", "geolocation": {"lon": 153.0428, "lat": -27.4939}},{"venue_name": "Burn Street Park, Camp Hill", "venue_address": "Burn Street Park, 35 Long Street, Camp Hill", "venue_type": "Park", "latitude": -27.4955, "longitude": 153.0835, "suburb": "Camp Hill", "suburb_list": "C, Camp Hill", "geolocation": {"lon": 153.0835, "lat": -27.4955}},{"venue_name": "Burnett Lane, Brisbane City", "venue_address": "Burnett Lane, Brisbane City", "venue_type": "General Council venue", "latitude": -27.4697, "longitude": 153.0242, "suburb": "Brisbane City", "suburb_list": "B, Brisbane City", "geolocation": {"lon": 153.0242, "lat": -27.4697}},{"venue_name": "Burnie Brae Centre, Chermside", "venue_address": "Burnie Brae Centre, 60 Kuran Street, Chermside", "venue_type": "Non-Council venue", "latitude": -27.3899102, "longitude": 153.0319317, "suburb": "Chermside", "suburb_list": "C, Chermside", "geolocation": {"lon": 153.0319317, "lat": -27.3899102}},{"venue_name": "Burnie Brae Park, Chermside", "venue_address": "Burnie Brae Park, 60 Kuran Street, Chermside", "venue_type": "Community Garden,Park", "latitude": -27.3897, "longitude": 153.0354, "suburb": "Chermside", "suburb_list": "C, Chermside", "geolocation": {"lon": 153.0354, "lat": -27.3897}},{"venue_name": "Burrun Park, Karana Downs", "venue_address": "Burrun Park, 99 College Road, Karana Downs", "venue_type": "Park", "latitude": -27.5490002, "longitude": 152.8182094, "suburb": "Karana Downs", "suburb_list": "K, Karana Downs", "geolocation": {"lon": 152.8182094, "lat": -27.5490002}},{"venue_name": "Bushy Park, Sunnybank Hills", "venue_address": "Bushy Park , 14 Jales Street, Sunnybank Hills", "venue_type": "Park", "latitude": -27.5913, "longitude": 153.0462, "suburb": "Sunnybank Hills", "suburb_list": "S, Sunnybank Hills", "geolocation": {"lon": 153.0462, "lat": -27.5913}},{"venue_name": "Byrne's Paddock Park", "venue_address": "Byrne's Paddock Park, 21 Federation Street, Windsor", "venue_type": "Park", "latitude": -27.440784, "longitude": 153.0317408, "suburb": "Windsor", "suburb_list": "W, Windsor", "geolocation": {"lon": 153.0317408, "lat": -27.440784}},{"venue_name": "Byron Street Park, Runcorn", "venue_address": "Byron Street Park, 2 Byron Street, Runcorn", "venue_type": "Park", "latitude": -27.6007, "longitude": 153.0668, "suburb": "Runcorn", "suburb_list": "R, Runcorn", "geolocation": {"lon": 153.0668, "lat": -27.6007}},{"venue_name": "C. Slaughter Park, Bracken Ridge", "venue_address": "C. Slaughter Park, 21 Raines Court, Bracken Ridge", "venue_type": "Park", "latitude": -27.327, "longitude": 153.0357, "suburb": "Bracken Ridge", "suburb_list": "B, Bracken Ridge", "geolocation": {"lon": 153.0357, "lat": -27.327}},{"venue_name": "C.A. O'Sullivan Park, Acacia Ridge", "venue_address": "C.A. O'Sullivan Park, 1367 Beaudesert Road, Acacia Ridge", "venue_type": "Park", "latitude": -27.5865, "longitude": 153.0254, "suburb": "Acacia Ridge", "suburb_list": "A, Acacia Ridge", "geolocation": {"lon": 153.0254, "lat": -27.5865}},{"venue_name": "C.B. Mott Park, Holland Park", "venue_address": "C.B. Mott Park, 49 Abbotsleigh Street, Holland Park", "venue_type": "Park", "latitude": -27.5156, "longitude": 153.0594, "suburb": "Holland Park", "suburb_list": "H, Holland Park", "geolocation": {"lon": 153.0594, "lat": -27.5156}},{"venue_name": "C.J. Greenfield Community Hall, Richlands", "venue_address": "C.J. Greenfield Community Hall, 315 Freeman Road, Richlands", "venue_type": "Community Hall", "latitude": -27.5811598, "longitude": 152.9602622, "suburb": "Richlands", "suburb_list": "R, Richlands", "geolocation": {"lon": 152.9602622, "lat": -27.5811598}},{"venue_name": "C.J. Greenfield Complex Park, Richlands", "venue_address": "C.J. Greenfield Complex Park, 149 Kimberley Street, Richlands", "venue_type": "Park", "latitude": -27.578277, "longitude": 152.963029, "suburb": "Richlands", "suburb_list": "R, Richlands", "geolocation": {"lon": 152.963029, "lat": -27.578277}},{"venue_name": "C.P. Bottomley Park, Norman Park", "venue_address": "C.P. Bottomley Park, 31 Halifax Street, Norman Park", "venue_type": "Park", "latitude": -27.4839, "longitude": 153.061, "suburb": "Norman Park", "suburb_list": "N, Norman Park", "geolocation": {"lon": 153.061, "lat": -27.4839}},{"venue_name": "C.T. White Park, Kangaroo Point", "venue_address": "C.T. White Park, 22 Bright Street, Kangaroo Point", "venue_type": "Park", "latitude": -27.4698, "longitude": 153.0343, "suburb": "Kangaroo Point", "suburb_list": "K, Kangaroo Point", "geolocation": {"lon": 153.0343, "lat": -27.4698}},{"venue_name": "Cadogan Street Park, Carindale", "venue_address": "Cadogan Street Park, 199 Meadowlands Road, Carindale", "venue_type": "Park", "latitude": -27.4985, "longitude": 153.117, "suburb": "Carindale", "suburb_list": "C, Carindale", "geolocation": {"lon": 153.117, "lat": -27.4985}},{"venue_name": "Calamvale District Park, Calamvale", "venue_address": "Calamvale District Park, 31 Formby Street, Calamvale", "venue_type": "Park", "latitude": -27.6212, "longitude": 153.0381, "suburb": "Calamvale", "suburb_list": "C, Calamvale", "geolocation": {"lon": 153.0381, "lat": -27.6212}},{"venue_name": "Calamvista Park, Calamvale", "venue_address": "Calamvista Park, 20 Monsour Street, Calamvale", "venue_type": "Park", "latitude": -27.6171, "longitude": 153.0591, "suburb": "Calamvale", "suburb_list": "C, Calamvale", "geolocation": {"lon": 153.0591, "lat": -27.6171}},{"venue_name": "California Lane, Fortitude Valley", "venue_address": "California Lane, 22 McLachlan Street, Fortitude Valley", "venue_type": "General Council venue", "latitude": -27.458615, "longitude": 153.035563, "suburb": "Fortitude Valley", "suburb_list": "F, Fortitude Valley", "geolocation": {"lon": 153.035563, "lat": -27.458615}},{"venue_name": "Calliope Circuit Park, Murarrie", "venue_address": "Calliope Circuit Park, 11 Calliope Circuit, Murarrie", "venue_type": "Park", "latitude": -27.4637, "longitude": 153.0941, "suburb": "Murarrie", "suburb_list": "M, Murarrie", "geolocation": {"lon": 153.0941, "lat": -27.4637}},{"venue_name": "Camelot Park, Middle Park", "venue_address": "Camelot Park, 33 Camelot Crescent, Middle Park", "venue_type": "Park", "latitude": -27.5585, "longitude": 152.9227, "suburb": "Middle Park", "suburb_list": "M, Middle Park", "geolocation": {"lon": 152.9227, "lat": -27.5585}},{"venue_name": "Cameron Rocks Reserve, Hamilton", "venue_address": "Cameron Rocks Reserve, 79 Kingsford Smith Drive, Hamilton", "venue_type": "Park", "latitude": -27.441, "longitude": 153.0484, "suburb": "Hamilton", "suburb_list": "H, Hamilton", "geolocation": {"lon": 153.0484, "lat": -27.441}},{"venue_name": "Camoola Street Park, Keperra", "venue_address": "Camoola Street Park, 62 Camoola Street, Keperra", "venue_type": "Park", "latitude": -27.4106, "longitude": 152.9437, "suburb": "Keperra", "suburb_list": "K, Keperra", "geolocation": {"lon": 152.9437, "lat": -27.4106}},{"venue_name": "Cannes Street Park, Wakerley", "venue_address": "Cannes Street Park, 16 Caringbah Street, Wakerley", "venue_type": "Park", "latitude": -27.477, "longitude": 153.1615, "suburb": "Wakerley", "suburb_list": "W, Wakerley", "geolocation": {"lon": 153.1615, "lat": -27.477}},{"venue_name": "Cannon Hill Bushland Reserve, Cannon Hill", "venue_address": "Cannon Hill Bushland Reserve, 1833 Creek Road, Cannon Hill", "venue_type": "Park", "latitude": -27.4735, "longitude": 153.1014, "suburb": "Cannon Hill", "suburb_list": "C, Cannon Hill", "geolocation": {"lon": 153.1014, "lat": -27.4735}},{"venue_name": "Canterbury Park, Bald Hills", "venue_address": "Canterbury Park, 63 Feuerriegel Road, Bald Hills", "venue_type": "Park", "latitude": -27.3081, "longitude": 153.0067, "suburb": "Bald Hills", "suburb_list": "B, Bald Hills", "geolocation": {"lon": 153.0067, "lat": -27.3081}},{"venue_name": "Cape Arid Park, Fitzgibbon", "venue_address": "Cape Arid Park, 17 Cape Arid Park Way, Fitzgibbon", "venue_type": "Park", "latitude": -27.3368, "longitude": 153.0244, "suburb": "Fitzgibbon", "suburb_list": "F, Fitzgibbon", "geolocation": {"lon": 153.0244, "lat": -27.3368}},{"venue_name": "Capitol Drive Park, Jindalee", "venue_address": "Capitol Drive Park, 78 Capitol Drive, Jindalee", "venue_type": "Park", "latitude": -27.5399, "longitude": 152.9447, "suburb": "Jindalee", "suburb_list": "J, Jindalee", "geolocation": {"lon": 152.9447, "lat": -27.5399}},{"venue_name": "Captain Burke Park, Kangaroo Point", "venue_address": "Captain Burke Park, 117 Holman Street, Kangaroo Point", "venue_type": "Park", "latitude": -27.4654, "longitude": 153.0349, "suburb": "Kangaroo Point", "suburb_list": "K, Kangaroo Point", "geolocation": {"lon": 153.0349, "lat": -27.4654}},{"venue_name": "Captain Doug Hislop Park, Murarrie", "venue_address": "Captain Doug Hislop Park, 69 Metroplex Avenue, Murarrie", "venue_type": "Park", "latitude": -27.448844, "longitude": 153.098834, "suburb": "Murarrie", "suburb_list": "M, Murarrie", "geolocation": {"lon": 153.098834, "lat": -27.448844}},{"venue_name": "Caravonica Court Park, Calamvale", "venue_address": "Caravonica Court Park, 59 Chateau Street, Calamvale", "venue_type": "Park", "latitude": -27.6153, "longitude": 153.0567, "suburb": "Calamvale", "suburb_list": "C, Calamvale", "geolocation": {"lon": 153.0567, "lat": -27.6153}},{"venue_name": "Carawa Street Park", "venue_address": "5 Carawa Street, Carawa Street Park, St Lucia", "venue_type": "Park", "latitude": -27.5026448, "longitude": 152.9918508, "suburb": "St Lucia", "suburb_list": "S, St Lucia", "geolocation": {"lon": 152.9918508, "lat": -27.5026448}},{"venue_name": "Carew Street Park, Nundah", "venue_address": "Carew Street Park, 46 Carew Street, Nundah", "venue_type": "Park", "latitude": -27.4044, "longitude": 153.0511, "suburb": "Nundah", "suburb_list": "N, Nundah", "geolocation": {"lon": 153.0511, "lat": -27.4044}},{"venue_name": "Carina Library", "venue_address": "Carina Library, Corner Mayfield Road and Nyrang Street, Carina", "venue_type": "Library", "latitude": -27.4936, "longitude": 153.0898, "suburb": "Carina", "suburb_list": "C, Carina", "geolocation": {"lon": 153.0898, "lat": -27.4936}},{"venue_name": "Carindale Library", "venue_address": "Carindale Library, Westfield Carindale, 1151 Creek Road (near Millennium Boulevard), Carindale", "venue_type": "Library", "latitude": -27.5027, "longitude": 153.1002, "suburb": "Carindale", "suburb_list": "C, Carindale", "geolocation": {"lon": 153.1002, "lat": -27.5027}},{"venue_name": "Carindale PCYC", "venue_address": "Carindale PCYC, 27 Narracott Street, Carina", "venue_type": "Community Garden,Non-Council venue", "latitude": -27.4969, "longitude": 153.1004, "suburb": "Carina", "suburb_list": "C, Carina", "geolocation": {"lon": 153.1004, "lat": -27.4969}},{"venue_name": "Carindale Recreation Reserve, Carindale", "venue_address": "Carindale Recreation Reserve, 27 Cadogan Street, Carindale", "venue_type": "Park", "latitude": -27.4979, "longitude": 153.1106, "suburb": "Carindale", "suburb_list": "C, Carindale", "geolocation": {"lon": 153.1106, "lat": -27.4979}},{"venue_name": "Carinya Street Park, Indooroopilly", "venue_address": "Carinya Street Park, 27 Tatong Street, Indooroopilly", "venue_type": "Park", "latitude": -27.4949, "longitude": 152.9638, "suburb": "Indooroopilly", "suburb_list": "I, Indooroopilly", "geolocation": {"lon": 152.9638, "lat": -27.4949}},{"venue_name": "Carl Street Park, Woolloongabba", "venue_address": "Carl Street Park, 43 Carl Street, Woolloongabba", "venue_type": "Park", "latitude": -27.4999, "longitude": 153.0374, "suburb": "Woolloongabba", "suburb_list": "W, Woolloongabba", "geolocation": {"lon": 153.0374, "lat": -27.4999}},{"venue_name": "Carmichael Park, Tingalpa", "venue_address": "Carmichael Park, 175 Boundary Street, Tingalpa", "venue_type": "Park", "latitude": -27.4685, "longitude": 153.1252, "suburb": "Tingalpa", "suburb_list": "T, Tingalpa", "geolocation": {"lon": 153.1252, "lat": -27.4685}},{"venue_name": "Carnarvon Way Park, Murarrie", "venue_address": "Carnarvon Way Park, 38 Carnarvon Way, Murarrie", "venue_type": "Park", "latitude": -27.4615, "longitude": 153.0955, "suburb": "Murarrie", "suburb_list": "M, Murarrie", "geolocation": {"lon": 153.0955, "lat": -27.4615}},{"venue_name": "Carole Park Community Park, Ellen Grove", "venue_address": "Carole Park Community Park, 11A Southampton Road, Ellen Grove", "venue_type": "Park", "latitude": -27.6153, "longitude": 152.9394, "suburb": "Ellen Grove", "suburb_list": "E, Ellen Grove", "geolocation": {"lon": 152.9394, "lat": -27.6153}},{"venue_name": "Carole Park Pool, Wacol", "venue_address": "Carole Park Pool, Corner Boundary Road and Waterford Road, Wacol", "venue_type": "Swimming pool", "latitude": -27.6081, "longitude": 152.9339, "suburb": "Wacol", "suburb_list": "W, Wacol", "geolocation": {"lon": 152.9339, "lat": -27.6081}},{"venue_name": "Cascade Drive Park (no. 20), Forest Lake", "venue_address": "Cascade Drive Park (no. 20), 20 Cascade Drive, Forest Lake", "venue_type": "Park", "latitude": -27.6281, "longitude": 152.9658, "suburb": "Forest Lake", "suburb_list": "F, Forest Lake", "geolocation": {"lon": 152.9658, "lat": -27.6281}},{"venue_name": "Cascade Drive Park (no. 25), Forest Lake", "venue_address": "Cascade Drive Park, 25 Cascade Drive, Forest Lake", "venue_type": "Park", "latitude": -27.6292, "longitude": 152.9637, "suburb": "Forest Lake", "suburb_list": "F, Forest Lake", "geolocation": {"lon": 152.9637, "lat": -27.6292}},{"venue_name": "Cassia Place Park, Taigum", "venue_address": "Cassia Place Park, 20 Cassia Place, Taigum", "venue_type": "Park", "latitude": -27.3347, "longitude": 153.048, "suburb": "Taigum", "suburb_list": "T, Taigum", "geolocation": {"lon": 153.048, "lat": -27.3347}},{"venue_name": "Cassidy Crescent Park", "venue_address": "Cassidy Crescent Park, 52 Cassidy Crescent, Bridgeman Downs", "venue_type": "Park", "latitude": -27.3371687, "longitude": 153.0047398, "suburb": "Bridgeman Downs", "suburb_list": "B, Bridgeman Downs", "geolocation": {"lon": 153.0047398, "lat": -27.3371687}},{"venue_name": "Catalina Park, Teneriffe", "venue_address": "Catalina Park, 71 Macquarie Street, Teneriffe", "venue_type": "Park", "latitude": -27.4609, "longitude": 153.0505, "suburb": "Teneriffe", "suburb_list": "T, Teneriffe", "geolocation": {"lon": 153.0505, "lat": -27.4609}},{"venue_name": "Catania Street Park, Wishart", "venue_address": "Catania Street Park, 39 Catania Street South, Wishart", "venue_type": "Park", "latitude": -27.546, "longitude": 153.1001, "suburb": "Wishart", "suburb_list": "W, Wishart", "geolocation": {"lon": 153.1001, "lat": -27.546}},{"venue_name": "Cathay Community Association Inc., Coopers Plains", "venue_address": "Cathay Community Association Inc., 71 Annie Street, Coopers Plains", "venue_type": "Non-Council venue", "latitude": -27.566072, "longitude": 153.03, "suburb": "Coopers Plains", "suburb_list": "C, Coopers Plains", "geolocation": {"lon": 153.03, "lat": -27.566072}},{"venue_name": "Cathedral Square, Brisbane City", "venue_address": "Cathedral Square, 410 Ann Street, Brisbane City", "venue_type": "Park", "latitude": -27.4635, "longitude": 153.0291, "suburb": "Brisbane City", "suburb_list": "B, Brisbane City", "geolocation": {"lon": 153.0291, "lat": -27.4635}},{"venue_name": "Cavay Playground Park, Sunnybank Hills", "venue_address": "Cavay Playground Park, 121 Morden Street, Sunnybank Hills", "venue_type": "Park", "latitude": -27.5815, "longitude": 153.0396, "suburb": "Sunnybank Hills", "suburb_list": "S, Sunnybank Hills", "geolocation": {"lon": 153.0396, "lat": -27.5815}},{"venue_name": "Cawonga Park, Oxley", "venue_address": "Cawonga Park, 89 Oxley Station Road, Oxley", "venue_type": "Park", "latitude": -27.5544, "longitude": 152.9758, "suburb": "Oxley", "suburb_list": "O, Oxley", "geolocation": {"lon": 152.9758, "lat": -27.5544}},{"venue_name": "Ceccato Park, Carseldine", "venue_address": "Ceccato Park, 30 Ray Street, Carseldine", "venue_type": "Park", "latitude": -27.342189, "longitude": 153.02015, "suburb": "Carseldine", "suburb_list": "C, Carseldine", "geolocation": {"lon": 153.02015, "lat": -27.342189}},{"venue_name": "Cedar Creek Cemetery, Upper Kedron", "venue_address": "Cedar Creek Cemetery, 47 Cemetery Road, Upper Kedron", "venue_type": "General Council venue", "latitude": -27.4131, "longitude": 152.924, "suburb": "Upper Kedron", "suburb_list": "U, Upper Kedron", "geolocation": {"lon": 152.924, "lat": -27.4131}},{"venue_name": "Centacare North East Community Care", "venue_address": "Centacare North East Community Care, 20 Cambage Road, Northgate", "venue_type": "Community Garden,Non-Council venue", "latitude": -27.3973, "longitude": 153.0733, "suburb": "Northgate", "suburb_list": "N, Northgate", "geolocation": {"lon": 153.0733, "lat": -27.3973}},{"venue_name": "Centenary Park, Fortitude Valley", "venue_address": "Centenary Park, 85 Wickham Street, Fortitude Valley", "venue_type": "Park", "latitude": -27.4609, "longitude": 153.032, "suburb": "Fortitude Valley", "suburb_list": "F, Fortitude Valley", "geolocation": {"lon": 153.032, "lat": -27.4609}},{"venue_name": "Centenary Pool, Spring Hill", "venue_address": "Centenary Pool, 400 Gregory Terrace, Spring Hill", "venue_type": "Swimming pool", "latitude": -27.455, "longitude": 153.024, "suburb": "Spring Hill", "suburb_list": "S, Spring Hill", "geolocation": {"lon": 153.024, "lat": -27.455}},{"venue_name": "Central Street Park, Forest Lake", "venue_address": "Central Street Park, 13 Central Street, Forest Lake", "venue_type": "Park", "latitude": -27.6316, "longitude": 152.9609, "suburb": "Forest Lake", "suburb_list": "F, Forest Lake", "geolocation": {"lon": 152.9609, "lat": -27.6316}},{"venue_name": "Chadwell Street Canoe Ramp, Ransome", "venue_address": "Chadwell Street Canoe Ramp, Chadwell Street, Ransome", "venue_type": "General Council venue", "latitude": -27.5013, "longitude": 153.1838, "suburb": "Ransome", "suburb_list": "R, Ransome", "geolocation": {"lon": 153.1838, "lat": -27.5013}},{"venue_name": "Chandler Resource Recovery Centre, Chandler", "venue_address": "Chandler Resource Recovery Centre, 728 Tilley Road, Chandler (opposite the Sleeman Sports Complex)", "venue_type": "General Council venue", "latitude": -27.5145, "longitude": 153.1516, "suburb": "Chandler", "suburb_list": "C, Chandler", "geolocation": {"lon": 153.1516, "lat": -27.5145}},{"venue_name": "Changing Mountain Bushland, Kholo", "venue_address": "Changing Mountain Bushland, 384 Lake Manchester Road, Kholo", "venue_type": "Park", "latitude": -27.505095, "longitude": 152.7911811, "suburb": "Kholo", "suburb_list": "K, Kholo", "geolocation": {"lon": 152.7911811, "lat": -27.505095}},{"venue_name": "Charles Fraser Park, Eight Mile Plains", "venue_address": "Charles Fraser Park, 14 Manchester Street, Eight Mile Plains", "venue_type": "Park", "latitude": -27.575, "longitude": 153.0928, "suburb": "Eight Mile Plains", "suburb_list": "E, Eight Mile Plains", "geolocation": {"lon": 153.0928, "lat": -27.575}},{"venue_name": "Chateau Street Park, Carseldine", "venue_address": "Chateau Street Park, 11 Moselle Place, Carseldine", "venue_type": "Park", "latitude": -27.3465, "longitude": 153.0083, "suburb": "Carseldine", "suburb_list": "C, Carseldine", "geolocation": {"lon": 153.0083, "lat": -27.3465}},{"venue_name": "Chelmer Community Centre", "venue_address": "Chelmer Community Centre, Corner of Queenscroft and Halsbury Streets, Chelmer", "venue_type": "Non-Council venue", "latitude": -27.5109958, "longitude": 152.9711878, "suburb": "Chelmer", "suburb_list": "C, Chelmer", "geolocation": {"lon": 152.9711878, "lat": -27.5109958}},{"venue_name": "Chelmer Recreation Reserve, Chelmer", "venue_address": "Chelmer Recreation Reserve, 83 Oxley Road, Chelmer", "venue_type": "Park", "latitude": -27.5128, "longitude": 152.9748, "suburb": "Chelmer", "suburb_list": "C, Chelmer", "geolocation": {"lon": 152.9748, "lat": -27.5128}},{"venue_name": "Chelsea Road Park (no. 303), Ransome", "venue_address": "Chelsea Road Park (no. 303), 303 Chelsea Road, Ransome", "venue_type": "Park", "latitude": -27.4913, "longitude": 153.183, "suburb": "Ransome", "suburb_list": "R, Ransome", "geolocation": {"lon": 153.183, "lat": -27.4913}},{"venue_name": "Chelsea Road Park (nos. 399-551), Ransome", "venue_address": "Chelsea Road Park (nos. 399-551), 439 Chelsea Road, Ransome", "venue_type": "Park", "latitude": -27.4803, "longitude": 153.182, "suburb": "Ransome", "suburb_list": "R, Ransome", "geolocation": {"lon": 153.182, "lat": -27.4803}},{"venue_name": "Chermside Hills Reserve, McDowall", "venue_address": "Chermside Hills Reserve, 412 Trouts Road, McDowall", "venue_type": "Park", "latitude": -27.3771, "longitude": 152.9976, "suburb": "McDowall", "suburb_list": "M, McDowall", "geolocation": {"lon": 152.9976, "lat": -27.3771}},{"venue_name": "Chermside Library", "venue_address": "Chermside Library, 375 Hamilton Road, Chermside", "venue_type": "Library", "latitude": -27.381, "longitude": 153.0297, "suburb": "Chermside", "suburb_list": "C, Chermside", "geolocation": {"lon": 153.0297, "lat": -27.381}},{"venue_name": "Chermside Pool, Chermside", "venue_address": "Chermside Pool, 375 Hamilton Road, Chermside", "venue_type": "Swimming pool", "latitude": -27.3857991, "longitude": 153.0360006, "suburb": "Chermside", "suburb_list": "C, Chermside", "geolocation": {"lon": 153.0360006, "lat": -27.3857991}},{"venue_name": "Chester Park Reserve, Mount Gravatt East", "venue_address": "Chester Park Reserve, 138 Margate Street, Mt Gravatt East", "venue_type": "Park", "latitude": -27.5292, "longitude": 153.0838, "suburb": "Mt Gravatt East", "suburb_list": "M, Mt Gravatt East", "geolocation": {"lon": 153.0838, "lat": -27.5292}},{"venue_name": "Chesterfield Crescent Park, Kuraby", "venue_address": "Chesterfield Crescent Park, 140 Chesterfield Crescent, Kuraby", "venue_type": "Park", "latitude": -27.6071, "longitude": 153.0891, "suburb": "Kuraby", "suburb_list": "K, Kuraby", "geolocation": {"lon": 153.0891, "lat": -27.6071}},{"venue_name": "Childs Road Park, Nudgee", "venue_address": "Childs Road Park, 42 Morgan Circuit, Nudgee", "venue_type": "Park", "latitude": -27.3698, "longitude": 153.0947, "suburb": "Nudgee", "suburb_list": "N, Nudgee", "geolocation": {"lon": 153.0947, "lat": -27.3698}},{"venue_name": "Chinatown Mall, Fortitude Valley", "venue_address": "Chinatown Mall, Duncan St, Fortitude Valley", "venue_type": "General Council venue", "latitude": -27.4583, "longitude": 153.0334, "suburb": "Fortitude Valley", "suburb_list": "F, Fortitude Valley", "geolocation": {"lon": 153.0334, "lat": -27.4583}},{"venue_name": "Chris Brunton Park, Bald Hills", "venue_address": "Chris Brunton Park, 80 Elstree Street, Bald Hills", "venue_type": "Park", "latitude": -27.315521, "longitude": 153.016687, "suburb": "Bald Hills", "suburb_list": "B, Bald Hills", "geolocation": {"lon": 153.016687, "lat": -27.315521}},{"venue_name": "Christian and Margaret Nielsen Park, The Gap", "venue_address": "Christian and Margaret Nielsen Park, 17 Parkside Crescent, The Gap", "venue_type": "Park", "latitude": -27.4543, "longitude": 152.9355, "suburb": "The Gap", "suburb_list": "T, The Gap", "geolocation": {"lon": 152.9355, "lat": -27.4543}},{"venue_name": "Churchill Circuit Park, Banyo", "venue_address": "Churchill Circuit Park, 27 Churchill Circuit, Banyo", "venue_type": "Park", "latitude": -27.3832, "longitude": 153.0798, "suburb": "Banyo", "suburb_list": "B, Banyo", "geolocation": {"lon": 153.0798, "lat": -27.3832}},{"venue_name": "Cicada Park, Chapel Hill", "venue_address": "Cicada Park, 38 Dillingen Street, Chapel Hill", "venue_type": "Park", "latitude": -27.4961, "longitude": 152.942, "suburb": "Chapel Hill", "suburb_list": "C, Chapel Hill", "geolocation": {"lon": 152.942, "lat": -27.4961}},{"venue_name": "City Botanic Gardens - Information Kiosk, Brisbane City", "venue_address": "City Botanic Gardens - Information Kiosk, Main Drive, Brisbane City", "venue_type": "Park", "latitude": -27.475992, "longitude": 153.0264773, "suburb": "Brisbane City", "suburb_list": "B, Brisbane City", "geolocation": {"lon": 153.0264773, "lat": -27.475992}},{"venue_name": "City Botanic Gardens, Brisbane City", "venue_address": "City Botanic Gardens, 147 Alice Street, Brisbane City", "venue_type": "Park", "latitude": -27.476, "longitude": 153.0277, "suburb": "Brisbane City", "suburb_list": "B, Brisbane City", "geolocation": {"lon": 153.0277, "lat": -27.476}},{"venue_name": "Clare Avenue Park, Wynnum West", "venue_address": "Clare Avenue Park, 34 Clare Avenue, Wynnum West", "venue_type": "Park", "latitude": -27.4387, "longitude": 153.1525, "suburb": "Wynnum West", "suburb_list": "W, Wynnum West", "geolocation": {"lon": 153.1525, "lat": -27.4387}},{"venue_name": "Claremont Parade Park, Forest Lake", "venue_address": "Claremont Parade Park, 18 Claremont Parade, Forest Lake", "venue_type": "Park", "latitude": -27.6314, "longitude": 152.9732, "suburb": "Forest Lake", "suburb_list": "F, Forest Lake", "geolocation": {"lon": 152.9732, "lat": -27.6314}},{"venue_name": "Clarina Street Park, Chapel Hill", "venue_address": "Clarina Street Park, 2A Clarina Street, Chapel Hill", "venue_type": "Park", "latitude": -27.5012, "longitude": 152.9609, "suburb": "Chapel Hill", "suburb_list": "C, Chapel Hill", "geolocation": {"lon": 152.9609, "lat": -27.5012}},{"venue_name": "Clark Lane Park, Brisbane City", "venue_address": "Clark Lane Park, 518 Queen Street, Brisbane City", "venue_type": "Park", "latitude": -27.4635, "longitude": 153.0311, "suburb": "Brisbane City", "suburb_list": "B, Brisbane City", "geolocation": {"lon": 153.0311, "lat": -27.4635}},{"venue_name": "Clark Park, Windsor", "venue_address": "Clark Park, 381 Lutwyche Road, Windsor", "venue_type": "Park", "latitude": -27.4271, "longitude": 153.0326, "suburb": "Windsor", "suburb_list": "W, Windsor", "geolocation": {"lon": 153.0326, "lat": -27.4271}},{"venue_name": "Clarrie Beckingham Reserve, Bridgeman Downs", "venue_address": "Clarrie Beckingham Reserve, 60 Glenvillan Place, Bridgeman Downs", "venue_type": "Park", "latitude": -27.3638, "longitude": 152.9839, "suburb": "Bridgeman Downs", "suburb_list": "B, Bridgeman Downs", "geolocation": {"lon": 152.9839, "lat": -27.3638}},{"venue_name": "Clem Masters Park, Deagon", "venue_address": "Clem Masters Park, 31 Hickson Road, Deagon", "venue_type": "Park", "latitude": -27.334, "longitude": 153.0644, "suburb": "Deagon", "suburb_list": "D, Deagon", "geolocation": {"lon": 153.0644, "lat": -27.334}},{"venue_name": "Clembury Place Park, Calamvale", "venue_address": "Clembury Place Park, 138 Menser Street, Calamvale", "venue_type": "Park", "latitude": -27.6229, "longitude": 153.0357, "suburb": "Calamvale", "suburb_list": "C, Calamvale", "geolocation": {"lon": 153.0357, "lat": -27.6229}},